{"type":"FeatureCollection", "features": [
{"type":"Feature","geometry":{"type":"Point","coordinates":[115.7747704049074,39.895815205692266]},"properties":{"uid":885,"name":"北京京煤集团总医院大安山医院","province":"北京市","city":"北京市","area":"房山区","address":"北京市房山区大安山乡元港村军红路","lng":115.77477,"lat":39.895815}},
{"type":"Feature","geometry":{"type":"Point","coordinates":[115.71245968965884,39.87679207120108]},"properties":{"uid":886,"name":"金鸡台医院","province":"北京市","city":"北京市","area":"房山区","address":"金鸡台村一区2号","lng":115.71246,"lat":39.876792}},
{"type":"Feature","geometry":{"type":"Point","coordinates":[115.98515819577793,39.792276630112546]},"properties":{"uid":887,"name":"万佛堂医院","province":"北京市","city":"北京市","area":"房山区","address":"北京市房山区河北镇万佛堂村房东路","lng":115.985158,"lat":39.792277}},
{"type":"Feature","geometry":{"type":"Point","coordinates":[116.0617405076994,39.929440427095784]},"properties":{"uid":888,"name":"北京市门头沟区医院","province":"北京市","city":"北京市","area":"门头沟区","address":"北京市门头沟区圈门外大街73号","lng":116.061741,"lat":39.92944}},
{"type":"Feature","geometry":{"type":"Point","coordinates":[115.9949339735093,39.970134475614664]},"properties":{"uid":889,"name":"北京京煤总医院(王平医院)","province":"北京市","city":"北京市","area":"门头沟区","address":"北京市门头沟区王平大街东路河北小区","lng":115.994934,"lat":39.970134}},
{"type":"Feature","geometry":{"type":"Point","coordinates":[116.01697602980855,39.87715206957641]},"properties":{"uid":890,"name":"北京潭柘仁寿中医医院","province":"北京市","city":"北京市","area":"门头沟区","address":"北京市门头沟区潭柘寺镇鲁家滩大街79号院1-2号楼一层","lng":116.016976,"lat":39.877152}},
{"type":"Feature","geometry":{"type":"Point","coordinates":[115.91737288780217,39.955315315811745]},"properties":{"uid":891,"name":"北京京煤集团总医院木城涧医院","province":"北京市","city":"北京市","area":"门头沟区","address":"北京市门头沟区大台路17号","lng":115.917373,"lat":39.955315}},
{"type":"Feature","geometry":{"type":"Point","coordinates":[116.36042030604351,39.982549657617255]},"properties":{"uid":892,"name":"北京大学第三医院","province":"北京市","city":"北京市","area":"海淀区","address":"北京市海淀区花园北路49号","lng":116.36042,"lat":39.98255}},
{"type":"Feature","geometry":{"type":"Point","coordinates":[116.31512828374882,39.976955374975184]},"properties":{"uid":893,"name":"北京市海淀医院","province":"北京市","city":"北京市","area":"海淀区","address":"北京市海淀区中关村大街29号","lng":116.315128,"lat":39.976955}},
{"type":"Feature","geometry":{"type":"Point","coordinates":[116.37581435122827,39.94439491857706]},"properties":{"uid":894,"name":"北京积水潭医院(新街口院区)","province":"北京市","city":"北京市","area":"西城区","address":"北京市西城区新街口东街31号","lng":116.375814,"lat":39.944395}},
{"type":"Feature","geometry":{"type":"Point","coordinates":[116.27712928061466,39.904801173873395]},"properties":{"uid":895,"name":"中国人民解放军总医院","province":"北京市","city":"北京市","area":"海淀区","address":"北京市海淀区复兴路28号","lng":116.277129,"lat":39.904801}},
{"type":"Feature","geometry":{"type":"Point","coordinates":[116.38063368001627,39.931869217713306]},"properties":{"uid":896,"name":"北京大学第一医院","province":"北京市","city":"北京市","area":"西城区","address":"北京市西城区西什库大街8号","lng":116.380634,"lat":39.931869}},
{"type":"Feature","geometry":{"type":"Point","coordinates":[116.23231434978116,40.2270699777594]},"properties":{"uid":897,"name":"北京市昌平区医院","province":"北京市","city":"北京市","area":"昌平区","address":"北京市昌平区鼓楼北街9号","lng":116.232314,"lat":40.22707}},
{"type":"Feature","geometry":{"type":"Point","coordinates":[116.37865793273309,39.849522653934]},"properties":{"uid":898,"name":"北京博爱医院","province":"北京市","city":"北京市","area":"丰台区","address":"北京市丰台区角门北路10号","lng":116.378658,"lat":39.849523}},
{"type":"Feature","geometry":{"type":"Point","coordinates":[116.36758272715313,39.912939062700055]},"properties":{"uid":899,"name":"北京协和医院(西院)","province":"北京市","city":"北京市","area":"西城区","address":"北京市西城区二龙路大木仓胡同41号","lng":116.367583,"lat":39.912939}},
{"type":"Feature","geometry":{"type":"Point","coordinates":[116.20391383725095,39.92898141266368]},"properties":{"uid":900,"name":"北京大学首钢医院","province":"北京市","city":"北京市","area":"石景山区","address":"北京市石景山区晋元庄路9号","lng":116.203914,"lat":39.928981}},
{"type":"Feature","geometry":{"type":"Point","coordinates":[116.33358789533094,40.076633426287714]},"properties":{"uid":901,"name":"北京安达医院","province":"北京市","city":"北京市","area":"昌平区","address":"北京市昌平区回龙观镇回龙观西大街龙腾苑三区16号楼","lng":116.333588,"lat":40.076633}},
{"type":"Feature","geometry":{"type":"Point","coordinates":[116.29884881716944,40.02414205331955]},"properties":{"uid":902,"name":"北京市上地医院","province":"北京市","city":"北京市","area":"海淀区","address":"北京市海淀区农大南路树村西街甲6号","lng":116.298849,"lat":40.024142}},
{"type":"Feature","geometry":{"type":"Point","coordinates":[116.32063690589096,39.979956109623004]},"properties":{"uid":903,"name":"北京市中关村医院","province":"北京市","city":"北京市","area":"海淀区","address":"北京市海淀区中关村南路12号","lng":116.320637,"lat":39.979956}},
{"type":"Feature","geometry":{"type":"Point","coordinates":[116.30097812814023,39.92172298812663]},"properties":{"uid":904,"name":"中国人民解放军空军总医院","province":"北京市","city":"北京市","area":"海淀区","address":"北京市海淀区阜成路30号","lng":116.300978,"lat":39.921723}},
{"type":"Feature","geometry":{"type":"Point","coordinates":[116.21013821746507,39.82033457472645]},"properties":{"uid":905,"name":"北京市丰台中西医结合医院","province":"北京市","city":"北京市","area":"丰台区","address":"北京市丰台区长辛店东山坡三里甲60号","lng":116.210138,"lat":39.820335}},
{"type":"Feature","geometry":{"type":"Point","coordinates":[116.09680755824223,39.93943952203075]},"properties":{"uid":906,"name":"北京京煤集团总医院","province":"北京市","city":"北京市","area":"门头沟区","address":"北京市门头沟区黑山大街18号","lng":116.096808,"lat":39.93944}},
{"type":"Feature","geometry":{"type":"Point","coordinates":[116.2953932570257,39.84266039448845]},"properties":{"uid":907,"name":"北京丰台医院","province":"北京市","city":"北京市","area":"丰台区","address":"北京市丰台区丰台南路99号","lng":116.295393,"lat":39.84266}},
{"type":"Feature","geometry":{"type":"Point","coordinates":[116.37234169619258,39.95676770280962]},"properties":{"uid":908,"name":"解放军火箭军总医院","province":"北京市","city":"北京市","area":"西城区","address":"北京市西城区新街口外大街16号","lng":116.372342,"lat":39.956768}},
{"type":"Feature","geometry":{"type":"Point","coordinates":[116.38461600614615,39.92568980214046]},"properties":{"uid":909,"name":"中国人民解放军第305医院","province":"北京市","city":"北京市","area":"西城区","address":"北京市西城区文津街甲13号","lng":116.384616,"lat":39.92569}},
{"type":"Feature","geometry":{"type":"Point","coordinates":[116.26414608499542,40.100648708484314]},"properties":{"uid":910,"name":"北京大学国际医院","province":"北京市","city":"北京市","area":"昌平区","address":"北京市昌平区中关村生命科学园生命园路1号","lng":116.264146,"lat":40.100649}},
{"type":"Feature","geometry":{"type":"Point","coordinates":[116.21327632789685,39.90642296067847]},"properties":{"uid":911,"name":"北京市石景山医院","province":"北京市","city":"北京市","area":"石景山区","address":"北京市石景山区石景山路24号","lng":116.213276,"lat":39.906423}},
{"type":"Feature","geometry":{"type":"Point","coordinates":[116.39094853472554,40.179140094954306]},"properties":{"uid":912,"name":"北京小汤山医院","province":"北京市","city":"北京市","area":"昌平区","address":"北京市昌平区小汤山镇","lng":116.390949,"lat":40.17914}},
{"type":"Feature","geometry":{"type":"Point","coordinates":[116.2801255765051,39.9504981573194]},"properties":{"uid":913,"name":"北京怡德医院","province":"北京市","city":"北京市","area":"海淀区","address":"北京市海淀区昆明湖南路51号E座","lng":116.280126,"lat":39.950498}},
{"type":"Feature","geometry":{"type":"Point","coordinates":[116.27887791651422,39.95630203902283]},"properties":{"uid":914,"name":"北京四季青医院","province":"北京市","city":"北京市","area":"海淀区","address":"北京市海淀区远大路32号","lng":116.278878,"lat":39.956302}},
{"type":"Feature","geometry":{"type":"Point","coordinates":[116.36191019420238,39.85943291365618]},"properties":{"uid":915,"name":"北京丰台右安门医院","province":"北京市","city":"北京市","area":"丰台区","address":"北京市丰台区右安门外大街199号","lng":116.36191,"lat":39.859433}},
{"type":"Feature","geometry":{"type":"Point","coordinates":[116.31586474925936,39.88592695038503]},"properties":{"uid":916,"name":"北京电力医院","province":"北京市","city":"北京市","area":"丰台区","address":"北京市丰台区太平桥路太平桥西里甲1号","lng":116.315865,"lat":39.885927}},
{"type":"Feature","geometry":{"type":"Point","coordinates":[116.26592560078365,39.906277045814825]},"properties":{"uid":917,"name":"北京市中西医结合医院","province":"北京市","city":"北京市","area":"海淀区","address":"北京市海淀区永定路东街3号","lng":116.265926,"lat":39.906277}},
{"type":"Feature","geometry":{"type":"Point","coordinates":[116.32959754103763,40.06763036344818]},"properties":{"uid":918,"name":"北京回龙观医院","province":"北京市","city":"北京市","area":"昌平区","address":"北京市昌平区回龙观镇南店北路","lng":116.329598,"lat":40.06763}},
{"type":"Feature","geometry":{"type":"Point","coordinates":[116.22106597666547,40.116556787638295]},"properties":{"uid":919,"name":"中国人民解放军第九八四医院","province":"北京市","city":"北京市","area":"海淀区","address":"北京市海淀区上庄镇皂甲屯村116号","lng":116.221066,"lat":40.116557}},
{"type":"Feature","geometry":{"type":"Point","coordinates":[116.37610818571085,39.936353316767196]},"properties":{"uid":920,"name":"北京中医药大学附属护国寺中医医院","province":"北京市","city":"北京市","area":"西城区","address":"北京市西城区棉花胡同83号","lng":116.376108,"lat":39.936353}},
{"type":"Feature","geometry":{"type":"Point","coordinates":[116.36270641509513,39.882061827155376]},"properties":{"uid":921,"name":"北京市回民医院","province":"北京市","city":"北京市","area":"西城区","address":"北京市西城区右安门内大街11号","lng":116.362706,"lat":39.882062}},
{"type":"Feature","geometry":{"type":"Point","coordinates":[116.35273205145299,40.10379790761314]},"properties":{"uid":922,"name":"北京市昌平区中西医结合医院（分院）","province":"北京市","city":"北京市","area":"昌平区","address":"北京市昌平区沙河镇白各庄新村村南","lng":116.352732,"lat":40.103798}},
{"type":"Feature","geometry":{"type":"Point","coordinates":[116.24497297823989,40.20093688125923]},"properties":{"uid":923,"name":"北京龙山中医医院","province":"北京市","city":"北京市","area":"昌平区","address":"北京市昌平区城南街道白浮泉路19号","lng":116.244973,"lat":40.200937}},
{"type":"Feature","geometry":{"type":"Point","coordinates":[116.24656647131485,39.90817779231313]},"properties":{"uid":924,"name":"清华大学玉泉医院","province":"北京市","city":"北京市","area":"石景山区","address":"北京市石景山区石景山路5号","lng":116.246566,"lat":39.908178}},
{"type":"Feature","geometry":{"type":"Point","coordinates":[116.30811325592765,39.91348136413925]},"properties":{"uid":925,"name":"北京水利医院","province":"北京市","city":"北京市","area":"海淀区","address":"北京市海淀区玉渊潭南路19号","lng":116.308113,"lat":39.913481}},
{"type":"Feature","geometry":{"type":"Point","coordinates":[116.2043998911028,39.82959003102101]},"properties":{"uid":926,"name":"北京中医药大学东方医院","province":"北京市","city":"北京市","area":"丰台区","address":"北京市丰台区长辛店陈庄大街1号（西院区）","lng":116.2044,"lat":39.82959}},
{"type":"Feature","geometry":{"type":"Point","coordinates":[116.37579279465635,39.88097464567283]},"properties":{"uid":927,"name":"北京市健宫医院","province":"北京市","city":"北京市","area":"西城区","address":"北京市西城区儒福里6号","lng":116.375793,"lat":39.880975}},
{"type":"Feature","geometry":{"type":"Point","coordinates":[116.3062498807067,39.858256475383435]},"properties":{"uid":928,"name":"北京西京中医医院","province":"北京市","city":"北京市","area":"丰台区","address":"北京市丰台区丰管路甲5-9号","lng":116.30625,"lat":39.858256}},
{"type":"Feature","geometry":{"type":"Point","coordinates":[116.35427119741504,39.93689129842386]},"properties":{"uid":929,"name":"北京大学人民医院","province":"北京市","city":"北京市","area":"西城区","address":"北京市西城区西直门南大街11号","lng":116.354271,"lat":39.936891}},
{"type":"Feature","geometry":{"type":"Point","coordinates":[116.16144125623163,39.93646342192166]},"properties":{"uid":930,"name":"北京石景山模式口中医医院","province":"北京市","city":"北京市","area":"石景山区","address":"北京市石景山区模式口大街甲48号","lng":116.161441,"lat":39.936463}},
{"type":"Feature","geometry":{"type":"Point","coordinates":[116.31151988092766,39.967790480620096]},"properties":{"uid":931,"name":"中国人民大学医院","province":"北京市","city":"北京市","area":"海淀区","address":"北京市海淀区中关村大街59号中国人民大学内","lng":116.31152,"lat":39.96779}},
{"type":"Feature","geometry":{"type":"Point","coordinates":[116.16402754537009,40.04869822588321]},"properties":{"uid":932,"name":"北京老年医院","province":"北京市","city":"北京市","area":"海淀区","address":"北京市海淀区温泉路118号","lng":116.164028,"lat":40.048698}},
{"type":"Feature","geometry":{"type":"Point","coordinates":[116.36735735741468,39.93098567705653]},"properties":{"uid":933,"name":"北京家圆医院","province":"北京市","city":"北京市","area":"西城区","address":"北京市西城区赵登禹路富国街2号","lng":116.367357,"lat":39.930986}},
{"type":"Feature","geometry":{"type":"Point","coordinates":[116.30680898189264,39.94100576160984]},"properties":{"uid":934,"name":"中国人民解放军空军航空医学研究所附属医院","province":"北京市","city":"北京市","area":"海淀区","address":"北京市海淀区昌运宫15号","lng":116.306809,"lat":39.941006}},
{"type":"Feature","geometry":{"type":"Point","coordinates":[116.33348580862315,39.900176529955836]},"properties":{"uid":935,"name":"北京市羊坊店医院","province":"北京市","city":"北京市","area":"海淀区","address":"北京市海淀区羊坊店双贝子坟路1号","lng":116.333486,"lat":39.900177}},
{"type":"Feature","geometry":{"type":"Point","coordinates":[116.28066513956004,39.966575997365794]},"properties":{"uid":936,"name":"空军指挥学院医院","province":"北京市","city":"北京市","area":"海淀区","address":"北京市海淀区蓝靛厂路88号","lng":116.280665,"lat":39.966576}},
{"type":"Feature","geometry":{"type":"Point","coordinates":[116.32075624391769,40.08342925239242]},"properties":{"uid":937,"name":"北京长城中医医院","province":"北京市","city":"北京市","area":"昌平区","address":"北京市昌平区回龙观育知西路风雅园二区3号楼","lng":116.320756,"lat":40.083429}},
{"type":"Feature","geometry":{"type":"Point","coordinates":[116.26531755452369,39.9293801238704]},"properties":{"uid":938,"name":"北京菩真堂中医医院","province":"北京市","city":"北京市","area":"海淀区","address":"北京市海淀区田村路23号-4","lng":116.265318,"lat":39.92938}},
{"type":"Feature","geometry":{"type":"Point","coordinates":[116.2760729898013,39.930482525752936]},"properties":{"uid":939,"name":"北京美尔目定慧医院","province":"北京市","city":"北京市","area":"海淀区","address":"北京市海淀区八里庄街道五孔桥33号院12幢","lng":116.276073,"lat":39.930483}},
{"type":"Feature","geometry":{"type":"Point","coordinates":[116.27630050474468,39.93810904868215]},"properties":{"uid":940,"name":"北京颐美佳中医院","province":"北京市","city":"北京市","area":"海淀区","address":"北京市海淀区西四环北路136号","lng":116.276301,"lat":39.938109}},
{"type":"Feature","geometry":{"type":"Point","coordinates":[116.18688026143148,39.80645700112564]},"properties":{"uid":941,"name":"北京六一八医院","province":"北京市","city":"北京市","area":"丰台区","address":"北京市丰台区朱家坟四里13号","lng":116.18688,"lat":39.806457}},
{"type":"Feature","geometry":{"type":"Point","coordinates":[116.1605755021812,39.93227605063641]},"properties":{"uid":942,"name":"北京石景山路安康中医医院","province":"北京市","city":"北京市","area":"石景山区","address":"北京市石景山区模式口南里临丁9号","lng":116.160576,"lat":39.932276}},
{"type":"Feature","geometry":{"type":"Point","coordinates":[116.28508124609313,39.92548912241794]},"properties":{"uid":943,"name":"北京汉琨中医医院","province":"北京市","city":"北京市","area":"海淀区","address":"北京市海淀区阜成路甲2号","lng":116.285081,"lat":39.925489}},
{"type":"Feature","geometry":{"type":"Point","coordinates":[116.26399398649623,39.921893964165186]},"properties":{"uid":944,"name":"北京裕和中西医结合康复医院","province":"北京市","city":"北京市","area":"海淀区","address":"北京市海淀区永定路15号","lng":116.263994,"lat":39.921894}},
{"type":"Feature","geometry":{"type":"Point","coordinates":[116.31463279010727,39.885315034447046]},"properties":{"uid":945,"name":"北京电力医院综合办公区","province":"北京市","city":"北京市","area":"丰台区","address":"北京市丰台区广安路辅路","lng":116.314633,"lat":39.885315}},
{"type":"Feature","geometry":{"type":"Point","coordinates":[116.37082887695642,39.97498310974695]},"properties":{"uid":946,"name":"北京明医方中医医院","province":"北京市","city":"北京市","area":"海淀区","address":"北京市海淀区北太平庄路2号院2号楼1层,2层以及22号楼","lng":116.370829,"lat":39.974983}},
{"type":"Feature","geometry":{"type":"Point","coordinates":[116.11668403661996,40.21078301584499]},"properties":{"uid":947,"name":"北京昌平臻俐康医院","province":"北京市","city":"北京市","area":"昌平区","address":"北京市昌平区南口镇温南路南农家园内","lng":116.116684,"lat":40.210783}},
{"type":"Feature","geometry":{"type":"Point","coordinates":[116.30653868631502,39.940955877721926]},"properties":{"uid":948,"name":"空军航空医学研究所附属医院白癜风治疗基地","province":"北京市","city":"北京市","area":"海淀区","address":"北京市海淀区昌运宫15号(北洼路北口,香格里拉饭店南100米路东)","lng":116.306539,"lat":39.940956}},
{"type":"Feature","geometry":{"type":"Point","coordinates":[116.32762397278977,39.96544361402407]},"properties":{"uid":949,"name":"青云职工医院","province":"北京市","city":"北京市","area":"海淀区","address":"北京市海淀区北三环西路40号","lng":116.327624,"lat":39.965444}},
{"type":"Feature","geometry":{"type":"Point","coordinates":[116.32761211104754,40.19244769186971]},"properties":{"uid":950,"name":"百善镇医院","province":"北京市","city":"北京市","area":"","address":"北京市昌平区良狮路","lng":116.327612,"lat":40.192448}},
{"type":"Feature","geometry":{"type":"Point","coordinates":[116.36525825224928,40.00884647193045]},"properties":{"uid":951,"name":"天津中医药大学研究生临床教学医院","province":"北京市","city":"北京市","area":"朝阳区","address":"北京市朝阳区","lng":116.365258,"lat":40.008846}},
{"type":"Feature","geometry":{"type":"Point","coordinates":[116.39000894483682,39.96873943688129]},"properties":{"uid":952,"name":"北京农学院教学医院","province":"北京市","city":"北京市","area":"","address":"北京市西城区","lng":116.390009,"lat":39.968739}},
{"type":"Feature","geometry":{"type":"Point","coordinates":[116.37196637062374,39.93506993289589]},"properties":{"uid":953,"name":"北京联合大学特殊教育学院实习医院","province":"北京市","city":"北京市","area":"","address":"北京市西城区","lng":116.371966,"lat":39.93507}},
{"type":"Feature","geometry":{"type":"Point","coordinates":[116.39044728643657,39.88460980359897]},"properties":{"uid":954,"name":"北京卫生职业学院教学医院","province":"北京市","city":"北京市","area":"","address":"北京市西城区","lng":116.390447,"lat":39.88461}},
{"type":"Feature","geometry":{"type":"Point","coordinates":[116.31628779209758,39.93953592494056]},"properties":{"uid":955,"name":"原钓鱼台医院","province":"北京市","city":"北京市","area":"海淀区","address":"北京市海淀区紫竹院路50号附近","lng":116.316288,"lat":39.939536}},
{"type":"Feature","geometry":{"type":"Point","coordinates":[116.34468304480875,40.03688109374746]},"properties":{"uid":956,"name":"北京清河医院","province":"北京市","city":"北京市","area":"海淀区","address":"北京市海淀区昌平路南段36号1号楼","lng":116.344683,"lat":40.036881}},
{"type":"Feature","geometry":{"type":"Point","coordinates":[116.31094288468272,39.85461308117108]},"properties":{"uid":957,"name":"北京乐圈轮胎医院","province":"北京市","city":"北京市","area":"丰台区","address":"北京市丰台区西国贸大厦(西国贸会展中心西南)","lng":116.310943,"lat":39.854613}},
{"type":"Feature","geometry":{"type":"Point","coordinates":[116.52962922980383,39.91564166648889]},"properties":{"uid":958,"name":"民航总医院","province":"北京市","city":"北京市","area":"朝阳区","address":"北京市朝阳区朝阳路高井甲1号","lng":116.529629,"lat":39.915642}},
{"type":"Feature","geometry":{"type":"Point","coordinates":[116.42000110295795,40.028944281971306]},"properties":{"uid":959,"name":"航空总医院","province":"北京市","city":"北京市","area":"朝阳区","address":"北京市朝阳区北苑路安外北苑3号院","lng":116.420001,"lat":40.028944}},
{"type":"Feature","geometry":{"type":"Point","coordinates":[116.4592396802323,39.887584173512565]},"properties":{"uid":960,"name":"北京市垂杨柳医院","province":"北京市","city":"北京市","area":"朝阳区","address":"北京市朝阳区垂杨柳南街2号","lng":116.45924,"lat":39.887584}},
{"type":"Feature","geometry":{"type":"Point","coordinates":[116.41519518746418,39.90383880947512]},"properties":{"uid":961,"name":"北京医院","province":"北京市","city":"北京市","area":"东城区","address":"北京市东城区东单大华路1号","lng":116.415195,"lat":39.903839}},
{"type":"Feature","geometry":{"type":"Point","coordinates":[116.41357972439137,39.958200801999965]},"properties":{"uid":962,"name":"北京市和平里医院","province":"北京市","city":"北京市","area":"东城区","address":"北京市东城区和平里北街18号","lng":116.41358,"lat":39.958201}},
{"type":"Feature","geometry":{"type":"Point","coordinates":[116.41465258322292,40.104982414134305]},"properties":{"uid":963,"name":"北京王府中西医结合医院","province":"北京市","city":"北京市","area":"昌平区","address":"北京市昌平区立汤路与北清路交叉口","lng":116.414653,"lat":40.104982}},
{"type":"Feature","geometry":{"type":"Point","coordinates":[116.64465246771005,39.88404022945781]},"properties":{"uid":964,"name":"北京中医药大学东直门医院(通州院区)","province":"北京市","city":"北京市","area":"通州区","address":"北京市通州区翠屏西路116号","lng":116.644652,"lat":39.88404}},
{"type":"Feature","geometry":{"type":"Point","coordinates":[116.43208473995655,39.86416944508271]},"properties":{"uid":965,"name":"北京中医药大学东方医院","province":"北京市","city":"北京市","area":"丰台区","address":"北京市丰台区芳星园一区6号","lng":116.432085,"lat":39.864169}},
{"type":"Feature","geometry":{"type":"Point","coordinates":[116.42738512312324,39.93724273219864]},"properties":{"uid":966,"name":"北京中医药大学东直门医院","province":"北京市","city":"北京市","area":"东城区","address":"北京市东城区海运仓胡同5号","lng":116.427385,"lat":39.937243}},
{"type":"Feature","geometry":{"type":"Point","coordinates":[116.47365359397774,40.00402573176467]},"properties":{"uid":967,"name":"北京朝阳凌和望京医院","province":"北京市","city":"北京市","area":"朝阳区","address":"北京市朝阳区宏昌路望京西园一区120号楼","lng":116.473654,"lat":40.004026}},
{"type":"Feature","geometry":{"type":"Point","coordinates":[116.40915204842113,39.9782759728118]},"properties":{"uid":968,"name":"北京中医药大学第三附属医院","province":"北京市","city":"北京市","area":"朝阳区","address":"北京市朝阳区安定门外小关街51号","lng":116.409152,"lat":39.978276}},
{"type":"Feature","geometry":{"type":"Point","coordinates":[116.41978837949807,39.80418397215864]},"properties":{"uid":969,"name":"北京航天总医院","province":"北京市","city":"北京市","area":"丰台区","address":"北京市丰台区东高地万源北路7号","lng":116.419788,"lat":39.804184}},
{"type":"Feature","geometry":{"type":"Point","coordinates":[116.64745066884062,39.915033151414455]},"properties":{"uid":970,"name":"中国人民解放军第二六三医院","province":"北京市","city":"北京市","area":"通州区","address":"北京市通州区永顺南街141号","lng":116.647451,"lat":39.915033}},
{"type":"Feature","geometry":{"type":"Point","coordinates":[116.6060343631188,39.8926590991379]},"properties":{"uid":971,"name":"北京市朝阳区双桥医院","province":"北京市","city":"北京市","area":"朝阳区","address":"北京市朝阳区双桥东路","lng":116.606034,"lat":39.892659}},
{"type":"Feature","geometry":{"type":"Point","coordinates":[116.43387120623854,39.90562351308626]},"properties":{"uid":972,"name":"北京同济医院","province":"北京市","city":"北京市","area":"东城区","address":"北京市东城区北京站东街11号","lng":116.433871,"lat":39.905624}},
{"type":"Feature","geometry":{"type":"Point","coordinates":[116.41488733838538,40.07313462121354]},"properties":{"uid":973,"name":"北京清华长庚医院","province":"北京市","city":"北京市","area":"昌平区","address":"北京市昌平区立汤路168号","lng":116.414887,"lat":40.073135}},
{"type":"Feature","geometry":{"type":"Point","coordinates":[116.49501444303337,39.96556484670689]},"properties":{"uid":974,"name":"北京华信医院","province":"北京市","city":"北京市","area":"朝阳区","address":"北京市朝阳区酒仙桥一街坊6号","lng":116.495014,"lat":39.965565}},
{"type":"Feature","geometry":{"type":"Point","coordinates":[116.65487880219074,40.127653161712985]},"properties":{"uid":975,"name":"北京中医医院顺义医院","province":"北京市","city":"北京市","area":"顺义区","address":"北京市顺义区站前东街5号","lng":116.654879,"lat":40.127653}},
{"type":"Feature","geometry":{"type":"Point","coordinates":[116.59648707083106,40.051328015584396]},"properties":{"uid":976,"name":"北京大学第三医院(首都国际机场院区)","province":"北京市","city":"北京市","area":"朝阳区","address":"北京市朝阳区岗山路9号","lng":116.596487,"lat":40.051328}},
{"type":"Feature","geometry":{"type":"Point","coordinates":[116.42046570469616,39.8948452773143]},"properties":{"uid":977,"name":"北京市普仁医院","province":"北京市","city":"北京市","area":"东城区","address":"北京市东城区崇文门外大街100号","lng":116.420466,"lat":39.894845}},
{"type":"Feature","geometry":{"type":"Point","coordinates":[116.41292063424207,39.94261750895232]},"properties":{"uid":978,"name":"北京市第六医院","province":"北京市","city":"北京市","area":"东城区","address":"北京市东城区交道口北二条36号","lng":116.412921,"lat":39.942618}},
{"type":"Feature","geometry":{"type":"Point","coordinates":[116.65446890912457,40.20929463659416]},"properties":{"uid":979,"name":"北京中医医院(顺义医院)","province":"北京市","city":"北京市","area":"顺义区","address":"北京市顺义区牛栏山镇牛富路","lng":116.654469,"lat":40.209295}},
{"type":"Feature","geometry":{"type":"Point","coordinates":[116.41691017586471,39.93083306983103]},"properties":{"uid":980,"name":"北京中医药大学东直门医院(国际部)","province":"北京市","city":"北京市","area":"东城区","address":"北京市东城区东四北大街279号","lng":116.41691,"lat":39.930833}},
{"type":"Feature","geometry":{"type":"Point","coordinates":[116.48515686481245,39.97498933800701]},"properties":{"uid":981,"name":"北京和睦家医院","province":"北京市","city":"北京市","area":"朝阳区","address":"北京市朝阳区将台路2号","lng":116.485157,"lat":39.974989}},
{"type":"Feature","geometry":{"type":"Point","coordinates":[116.40125314646625,39.86446718812671]},"properties":{"uid":982,"name":"东城区第一人民医院","province":"北京市","city":"北京市","area":"东城区","address":"北京市东城区永定门外大街130号","lng":116.401253,"lat":39.864467}},
{"type":"Feature","geometry":{"type":"Point","coordinates":[116.41129553282198,39.926715291994874]},"properties":{"uid":983,"name":"北京市隆福医院","province":"北京市","city":"北京市","area":"东城区","address":"北京市东城区美术馆东街18号","lng":116.411296,"lat":39.926715}},
{"type":"Feature","geometry":{"type":"Point","coordinates":[116.45091862417205,39.804459500680274]},"properties":{"uid":984,"name":"北京育龙和谐医院","province":"北京市","city":"北京市","area":"大兴区","address":"北京市大兴区旧宫镇旧忠路西五条一号","lng":116.450919,"lat":39.80446}},
{"type":"Feature","geometry":{"type":"Point","coordinates":[116.44909340400147,39.93443906439706]},"properties":{"uid":985,"name":"北京善方医院","province":"北京市","city":"北京市","area":"朝阳区","address":"北京市朝阳区工人体育场北路13号院4号楼","lng":116.449093,"lat":39.934439}},
{"type":"Feature","geometry":{"type":"Point","coordinates":[116.40522426304462,39.875375099079704]},"properties":{"uid":986,"name":"北京天坛普华医院","province":"北京市","city":"北京市","area":"东城区","address":"北京市东城区永定门东街天坛南里12号","lng":116.405224,"lat":39.875375}},
{"type":"Feature","geometry":{"type":"Point","coordinates":[116.41118658067765,40.071336651119616]},"properties":{"uid":987,"name":"北京亚美医院","province":"北京市","city":"北京市","area":"昌平区","address":"北京市昌平区太平庄中一街天通西苑二区19号4-102室,5-101室","lng":116.411187,"lat":40.071337}},
{"type":"Feature","geometry":{"type":"Point","coordinates":[116.41414615861319,39.84117270043103]},"properties":{"uid":988,"name":"北京丰台建都中西医结合医院","province":"北京市","city":"北京市","area":"丰台区","address":"北京市丰台区南顶路4号","lng":116.414146,"lat":39.841173}},
{"type":"Feature","geometry":{"type":"Point","coordinates":[116.44120882553408,40.034148609980264]},"properties":{"uid":989,"name":"北京东苑中医医院","province":"北京市","city":"北京市","area":"朝阳区","address":"北京市朝阳区北苑东路朝来绿色家园广华居18号,19号底商","lng":116.441209,"lat":40.034149}},
{"type":"Feature","geometry":{"type":"Point","coordinates":[116.40941489278968,39.915681138894406]},"properties":{"uid":990,"name":"北京同仁堂王府井中医医院","province":"北京市","city":"北京市","area":"东城区","address":"北京市东城区东安门大街23号","lng":116.409415,"lat":39.915681}},
{"type":"Feature","geometry":{"type":"Point","coordinates":[116.49213854231128,39.98908536339702]},"properties":{"uid":991,"name":"北京明德医院","province":"北京市","city":"北京市","area":"朝阳区","address":"北京市朝阳区酒仙桥北路9号","lng":116.492139,"lat":39.989085}},
{"type":"Feature","geometry":{"type":"Point","coordinates":[116.46241911400502,39.93174982218032]},"properties":{"uid":992,"name":"北京弘医堂中医医院","province":"北京市","city":"北京市","area":"朝阳区","address":"北京市朝阳区团结湖北路2号","lng":116.462419,"lat":39.93175}},
{"type":"Feature","geometry":{"type":"Point","coordinates":[116.43133731265225,39.984486699633436]},"properties":{"uid":993,"name":"北京朝阳中西医结合医院","province":"北京市","city":"北京市","area":"朝阳区","address":"北京市朝阳区育慧南路芍药居北里315号楼26号-32号","lng":116.431337,"lat":39.984487}},
{"type":"Feature","geometry":{"type":"Point","coordinates":[116.41860618885109,39.91229553203516]},"properties":{"uid":994,"name":"北京华尔医院","province":"北京市","city":"北京市","area":"东城区","address":"北京市东城区西总布胡同59号1-5层和61号1-5层","lng":116.418606,"lat":39.912296}},
{"type":"Feature","geometry":{"type":"Point","coordinates":[116.40947065785356,39.898750611260574]},"properties":{"uid":995,"name":"北京同仁堂中医医院","province":"北京市","city":"北京市","area":"东城区","address":"北京市东城区西打磨厂街46号","lng":116.409471,"lat":39.898751}},
{"type":"Feature","geometry":{"type":"Point","coordinates":[116.43661155679246,40.072283695252295]},"properties":{"uid":996,"name":"北京天通宽街中医医院","province":"北京市","city":"北京市","area":"昌平区","address":"北京市昌平区太平庄东一路天通苑东三区2号楼1,3,4,5层","lng":116.436612,"lat":40.072284}},
{"type":"Feature","geometry":{"type":"Point","coordinates":[116.64149067039422,39.89892573257286]},"properties":{"uid":997,"name":"北京京大医院","province":"北京市","city":"北京市","area":"通州区","address":"北京市通州区北苑南路16号","lng":116.641491,"lat":39.898926}},
{"type":"Feature","geometry":{"type":"Point","coordinates":[116.54698177888619,39.91273744025996]},"properties":{"uid":998,"name":"北京大黄庄医院","province":"北京市","city":"北京市","area":"朝阳区","address":"北京市朝阳区朝阳路大黄庄南里16号楼","lng":116.546982,"lat":39.912737}},
{"type":"Feature","geometry":{"type":"Point","coordinates":[116.4985736389932,39.90496297162793]},"properties":{"uid":999,"name":"北京四惠中医医院","province":"北京市","city":"北京市","area":"朝阳区","address":"北京市朝阳区惠河南街1092号","lng":116.498574,"lat":39.904963}},
{"type":"Feature","geometry":{"type":"Point","coordinates":[116.5255308759651,39.86952600880793]},"properties":{"uid":1000,"name":"北焦医院","province":"北京市","city":"北京市","area":"","address":"北京市朝阳区","lng":116.525531,"lat":39.869526}},
{"type":"Feature","geometry":{"type":"Point","coordinates":[116.52583033435131,39.8695255909357]},"properties":{"uid":1001,"name":"北京炼焦化学厂医院","province":"北京市","city":"北京市","area":"朝阳区","address":"北京市朝阳区王四营乡G1辅路王四营398号","lng":116.52583,"lat":39.869526}},
{"type":"Feature","geometry":{"type":"Point","coordinates":[116.45927560285016,39.88145179772205]},"properties":{"uid":1002,"name":"北京保平中西医结合医院","province":"北京市","city":"北京市","area":"朝阳区","address":"北京市朝阳区华威北里甲10号","lng":116.459276,"lat":39.881452}},
{"type":"Feature","geometry":{"type":"Point","coordinates":[116.43752807146919,39.94663193992702]},"properties":{"uid":1003,"name":"北京万国中医医院","province":"北京市","city":"北京市","area":"东城区","address":"北京市东城区东直门香河园街甲3号","lng":116.437528,"lat":39.946632}},
{"type":"Feature","geometry":{"type":"Point","coordinates":[116.426131285946,39.9742710964335]},"properties":{"uid":1004,"name":"中日友好医院","province":"北京市","city":"北京市","area":"朝阳区","address":"北京市朝阳区樱花园东街2号","lng":116.426131,"lat":39.974271}},
{"type":"Feature","geometry":{"type":"Point","coordinates":[116.52783331750341,40.02470026327027]},"properties":{"uid":1005,"name":"北京百汇京顺医院","province":"北京市","city":"北京市","area":"朝阳区","address":"北京市朝阳区京顺东街6号院2号楼1层101室,二层201室,三层301部分,四层401室","lng":116.527833,"lat":40.0247}},
{"type":"Feature","geometry":{"type":"Point","coordinates":[116.43705238940717,39.984010960259845]},"properties":{"uid":1006,"name":"北京岐黄弘医堂中医医院","province":"北京市","city":"北京市","area":"朝阳区","address":"北京市朝阳区芍药居北里305号楼一层24-29室","lng":116.437052,"lat":39.984011}},
{"type":"Feature","geometry":{"type":"Point","coordinates":[116.42160433730902,39.87903604905989]},"properties":{"uid":1007,"name":"北京彭胜医院","province":"北京市","city":"北京市","area":"东城区","address":"北京市东城区天坛东路66号15号楼西侧楼1-5层","lng":116.421604,"lat":39.879036}},
{"type":"Feature","geometry":{"type":"Point","coordinates":[116.55086166630413,39.91069812153368]},"properties":{"uid":1008,"name":"定福庄医院","province":"北京市","city":"北京市","area":"朝阳区","address":"定福庄西街21号楼","lng":116.550862,"lat":39.910698}},
{"type":"Feature","geometry":{"type":"Point","coordinates":[116.45830783423206,39.93554241309155]},"properties":{"uid":1009,"name":"武警北京总队医院","province":"北京市","city":"北京市","area":"朝阳区","address":"东三里屯1号","lng":116.458308,"lat":39.935542}},
{"type":"Feature","geometry":{"type":"Point","coordinates":[116.47745917527861,39.91079681226713]},"properties":{"uid":1010,"name":"苹果医院","province":"北京市","city":"北京市","area":"朝阳区","address":"北京市朝阳区西大望路3号院2号-s-120附近","lng":116.477459,"lat":39.910797}},
{"type":"Feature","geometry":{"type":"Point","coordinates":[116.43660668068111,40.07432299269955]},"properties":{"uid":1011,"name":"北京同汇中医医院","province":"北京市","city":"北京市","area":"昌平区","address":"北京市昌平区太平庄东路天通苑东三区2号楼","lng":116.436607,"lat":40.074323}},
{"type":"Feature","geometry":{"type":"Point","coordinates":[116.407277993511,40.12903369478908]},"properties":{"uid":1012,"name":"北京市昌平区无假日医院","province":"北京市","city":"北京市","area":"昌平区","address":"北京市昌平区北七家西平府中心东沙各庄小学北","lng":116.407278,"lat":40.129034}},
{"type":"Feature","geometry":{"type":"Point","coordinates":[116.65422036545752,40.127266735255056]},"properties":{"uid":1013,"name":"北京中医医院顺义医院-会议厅","province":"北京市","city":"北京市","area":"顺义区","address":"北京市顺义区站前街5号","lng":116.65422,"lat":40.127267}},
{"type":"Feature","geometry":{"type":"Point","coordinates":[116.43666672808948,39.96014717200767]},"properties":{"uid":1014,"name":"应急总医院","province":"北京市","city":"北京市","area":"朝阳区","address":"北京市朝阳区西坝河南里29号","lng":116.436667,"lat":39.960147}},
{"type":"Feature","geometry":{"type":"Point","coordinates":[116.41100875550057,40.07910239181258]},"properties":{"uid":1015,"name":"北京中医药大学教学医院","province":"北京市","city":"北京市","area":"昌平区","address":"太平庄北街84号附近","lng":116.411009,"lat":40.079102}},
{"type":"Feature","geometry":{"type":"Point","coordinates":[116.41959923756352,39.89463242983518]},"properties":{"uid":1016,"name":"皖南医学院教学医院","province":"北京市","city":"北京市","area":"东城区","address":"崇文门外大街与广渠门内大街交叉口东北150米","lng":116.419599,"lat":39.894632}},
{"type":"Feature","geometry":{"type":"Point","coordinates":[116.4240468041008,40.15516267432912]},"properties":{"uid":1017,"name":"北京九华温榆河医院","province":"北京市","city":"北京市","area":"昌平区","address":"北京市昌平区立汤路26号院3幢","lng":116.424047,"lat":40.155163}},
{"type":"Feature","geometry":{"type":"Point","coordinates":[116.43243500634077,40.10028631218264]},"properties":{"uid":1018,"name":"北京阳光鹿童中医医院","province":"北京市","city":"北京市","area":"昌平区","address":"北京市昌平区七星路名流花园综合楼1-3层","lng":116.432435,"lat":40.100286}},
{"type":"Feature","geometry":{"type":"Point","coordinates":[116.45561132594898,39.89090362705936]},"properties":{"uid":1019,"name":"北京化工实验厂华仁医院","province":"北京市","city":"北京市","area":"朝阳区","address":"北京市朝阳区垂杨柳中街1号","lng":116.455611,"lat":39.890904}},
{"type":"Feature","geometry":{"type":"Point","coordinates":[116.44114600629393,40.035330927560565]},"properties":{"uid":1020,"name":"北京农业职业学院教学实习医院","province":"北京市","city":"北京市","area":"","address":"北京市朝阳区","lng":116.441146,"lat":40.035331}},
{"type":"Feature","geometry":{"type":"Point","coordinates":[115.97328308950061,40.46342228042574]},"properties":{"uid":1021,"name":"北京市延庆区医院","province":"北京市","city":"北京市","area":"延庆区","address":"北京市延庆区东顺城街28号","lng":115.973283,"lat":40.463422}},
{"type":"Feature","geometry":{"type":"Point","coordinates":[115.98324361208837,40.470930922811114]},"properties":{"uid":1022,"name":"北京中医医院延庆医院","province":"北京市","city":"北京市","area":"延庆区","address":"北京市延庆区新城街11号","lng":115.983244,"lat":40.470931}},
{"type":"Feature","geometry":{"type":"Point","coordinates":[115.9931003856809,40.464836659623884]},"properties":{"uid":1023,"name":"好益生医院","province":"北京市","city":"北京市","area":"延庆区","address":"北京市延庆区东外大街63号","lng":115.9931,"lat":40.464837}},
{"type":"Feature","geometry":{"type":"Point","coordinates":[115.96968526058086,40.46522917555555]},"properties":{"uid":1024,"name":"儒林医院","province":"北京市","city":"北京市","area":"延庆区","address":"皇阁大街(北顺城街)与北关路口东南角","lng":115.969685,"lat":40.465229}},
{"type":"Feature","geometry":{"type":"Point","coordinates":[116.2414065655876,40.240239891848766]},"properties":{"uid":1025,"name":"北京华佑医院","province":"北京市","city":"北京市","area":"昌平区","address":"北京市昌平区中山路27号","lng":116.241407,"lat":40.24024}},
{"type":"Feature","geometry":{"type":"Point","coordinates":[116.2126394207903,40.33239503110575]},"properties":{"uid":1026,"name":"北京同善堂中医医院","province":"北京市","city":"北京市","area":"昌平区","address":"北京市昌平区十三陵镇石梨路锥石口村北700米院内1号楼,3号楼","lng":116.212639,"lat":40.332395}},
{"type":"Feature","geometry":{"type":"Point","coordinates":[116.13166426604717,40.23483020254536]},"properties":{"uid":1027,"name":"北京市平板玻璃工业职工医院","province":"北京市","city":"北京市","area":"昌平区","address":"北京市昌平区南口镇南大街6号","lng":116.131664,"lat":40.23483}},
{"type":"Feature","geometry":{"type":"Point","coordinates":[116.13009134793766,40.24193475690598]},"properties":{"uid":1028,"name":"南口铁路医院","province":"北京市","city":"北京市","area":"昌平区","address":"北京市昌平区南口镇新兴路8号","lng":116.130091,"lat":40.241935}},
{"type":"Feature","geometry":{"type":"Point","coordinates":[116.66063464722612,40.31745302488954]},"properties":{"uid":1029,"name":"北京怀柔医院","province":"北京市","city":"北京市","area":"怀柔区","address":"北京市怀柔区永泰北街9号院","lng":116.660635,"lat":40.317453}},
{"type":"Feature","geometry":{"type":"Point","coordinates":[116.66304451162021,40.35652875543452]},"properties":{"uid":1030,"name":"装备学院医院","province":"北京市","city":"北京市","area":"怀柔区","address":"雁栖八一路1号","lng":116.663045,"lat":40.356529}},
{"type":"Feature","geometry":{"type":"Point","coordinates":[116.55246332341348,40.28860742865258]},"properties":{"uid":1031,"name":"北京东方古本中医医院","province":"北京市","city":"北京市","area":"怀柔区","address":"北京市怀柔区桥梓镇东茶坞村217号","lng":116.552463,"lat":40.288607}},
{"type":"Feature","geometry":{"type":"Point","coordinates":[116.68747848272781,40.40932488340946]},"properties":{"uid":1032,"name":"北京市怀柔安佳医院","province":"北京市","city":"北京市","area":"怀柔区","address":"北京市怀柔区怀北镇火车站路1区23号","lng":116.687478,"lat":40.409325}},
{"type":"Feature","geometry":{"type":"Point","coordinates":[116.63702785992818,40.30837933197426]},"properties":{"uid":1033,"name":"北京世纪兴华医院","province":"北京市","city":"北京市","area":"怀柔区","address":"北京市怀柔区南华大街4号","lng":116.637028,"lat":40.308379}},
{"type":"Feature","geometry":{"type":"Point","coordinates":[116.64418890727829,40.32510916614687]},"properties":{"uid":1034,"name":"北京怀柔中唐医院","province":"北京市","city":"北京市","area":"怀柔区","address":"北京市怀柔区开放路金台园1号","lng":116.644189,"lat":40.325109}},
{"type":"Feature","geometry":{"type":"Point","coordinates":[116.62977511611751,40.313045333737726]},"properties":{"uid":1035,"name":"北京中医医院怀柔医院","province":"北京市","city":"北京市","area":"怀柔区","address":"北京市怀柔区青春路1号","lng":116.629775,"lat":40.313045}},
{"type":"Feature","geometry":{"type":"Point","coordinates":[116.68370856382953,40.282420081513784]},"properties":{"uid":1036,"name":"林方绮霞医院","province":"北京市","city":"北京市","area":"怀柔区","address":"北京市怀柔区仙台路652号南100米","lng":116.683709,"lat":40.28242}},
{"type":"Feature","geometry":{"type":"Point","coordinates":[116.6707315759887,40.364568012043165]},"properties":{"uid":1037,"name":"北京市怀柔区雁栖医院柏泉庄园社区卫生服务站","province":"北京市","city":"北京市","area":"怀柔区","address":"北京市怀柔区雁栖镇雁栖河西二路雁舞园小区13号楼","lng":116.670732,"lat":40.364568}},
{"type":"Feature","geometry":{"type":"Point","coordinates":[116.67864066459366,40.28730703775287]},"properties":{"uid":1038,"name":"北京汇都中医医院","province":"北京市","city":"北京市","area":"怀柔区","address":"北京市怀柔区凤翔大街","lng":116.678641,"lat":40.287307}},
{"type":"Feature","geometry":{"type":"Point","coordinates":[116.86278775986219,40.37871610757495]},"properties":{"uid":1039,"name":"北京市密云区博爱康医院","province":"北京市","city":"北京市","area":"密云区","address":"北京市密云区东门外环新路2号","lng":116.862788,"lat":40.378716}},
{"type":"Feature","geometry":{"type":"Point","coordinates":[116.86472988735858,40.39271298751841]},"properties":{"uid":1040,"name":"北京密云世济医院","province":"北京市","city":"北京市","area":"密云区","address":"北京市密云区檀西路西侧","lng":116.86473,"lat":40.392713}},
{"type":"Feature","geometry":{"type":"Point","coordinates":[116.84516055178698,40.36903458577423]},"properties":{"uid":1041,"name":"北京市密云区健福医院","province":"北京市","city":"北京市","area":"密云区","address":"北京市密云区南河路檀州家园A1号楼8-13号","lng":116.845161,"lat":40.369035}},
{"type":"Feature","geometry":{"type":"Point","coordinates":[116.84102842369923,40.35838356426556]},"properties":{"uid":1042,"name":"北京星辰中医医院","province":"北京市","city":"北京市","area":"密云区","address":"北京市密云区水源路355号蓝河湾37号楼1层101-108号,2层202-205号","lng":116.841028,"lat":40.358384}},
{"type":"Feature","geometry":{"type":"Point","coordinates":[116.92150738832609,40.37757497516832]},"properties":{"uid":1043,"name":"北京青水潭中医医院","province":"北京市","city":"北京市","area":"密云区","address":"北京市密云区巨各庄镇东白岩村南500米","lng":116.921507,"lat":40.377575}},
{"type":"Feature","geometry":{"type":"Point","coordinates":[116.82678619979269,40.36903514999614]},"properties":{"uid":1044,"name":"北京密云京儿中医医院","province":"北京市","city":"北京市","area":"密云区","address":"近郊密云区果园西路38号院9号楼","lng":116.826786,"lat":40.369035}},
{"type":"Feature","geometry":{"type":"Point","coordinates":[116.84369370765907,40.475054329231185]},"properties":{"uid":1045,"name":"北京市密云水库医院","province":"北京市","city":"北京市","area":"密云区","address":"北京市密云区溪翁庄镇环库南路北25号","lng":116.843694,"lat":40.475054}},
{"type":"Feature","geometry":{"type":"Point","coordinates":[116.64543514679582,40.73727473017462]},"properties":{"uid":1046,"name":"北京市怀柔区第二医院","province":"北京市","city":"北京市","area":"怀柔区","address":"北京市怀柔区汤河口镇汤河口大街5号","lng":116.645435,"lat":40.737275}},
{"type":"Feature","geometry":{"type":"Point","coordinates":[116.32845292931982,39.66556184255261]},"properties":{"uid":1047,"name":"北京市利康医院","province":"北京市","city":"北京市","area":"大兴区","address":"北京市大兴区魏永路9号","lng":116.328453,"lat":39.665562}},
{"type":"Feature","geometry":{"type":"Point","coordinates":[116.34875271205489,39.550768595506426]},"properties":{"uid":1048,"name":"孔宪绍医院","province":"北京市","city":"北京市","area":"大兴区","address":"北京市大兴区礼贤镇大东路与大礼路交叉口东150米","lng":116.348753,"lat":39.550769}},
{"type":"Feature","geometry":{"type":"Point","coordinates":[116.32166566333652,39.511212024954716]},"properties":{"uid":1049,"name":"北京市大兴区人民医院南院区-C区","province":"北京市","city":"北京市","area":"大兴区","address":"古镇街与新榆路交叉口南200米","lng":116.321666,"lat":39.511212}},
{"type":"Feature","geometry":{"type":"Point","coordinates":[115.95185632181108,39.72726569873745]},"properties":{"uid":1050,"name":"北京燕化医院","province":"北京市","city":"北京市","area":"房山区","address":"北京市房山区燕山迎风街15号","lng":115.951856,"lat":39.727266}},
{"type":"Feature","geometry":{"type":"Point","coordinates":[116.06829443650365,39.73332680282379]},"properties":{"uid":1051,"name":"中国核工业北京四〇一医院","province":"北京市","city":"北京市","area":"房山区","address":"北京市房山区新镇东平街","lng":116.068294,"lat":39.733327}},
{"type":"Feature","geometry":{"type":"Point","coordinates":[116.06816786987595,39.7089487829823]},"properties":{"uid":1052,"name":"燕化医院(星城分院)","province":"北京市","city":"北京市","area":"房山区","address":"北京市房山区建德东街健德二里42号","lng":116.068168,"lat":39.708949}},
{"type":"Feature","geometry":{"type":"Point","coordinates":[116.07801611493763,39.72219905865294]},"properties":{"uid":1053,"name":"北京同济东方中西医结合医院","province":"北京市","city":"北京市","area":"房山区","address":"北京市房山区阎村镇大紫草坞村","lng":116.078016,"lat":39.722199}},
{"type":"Feature","geometry":{"type":"Point","coordinates":[115.98419472884662,39.704674920910286]},"properties":{"uid":1054,"name":"北京博爱中西医结合医院","province":"北京市","city":"北京市","area":"房山区","address":"北京市房山区城关北大街6号","lng":115.984195,"lat":39.704675}},
{"type":"Feature","geometry":{"type":"Point","coordinates":[116.03443163639187,39.716908137915645]},"properties":{"uid":1055,"name":"房山桥梁厂职工医院","province":"北京市","city":"北京市","area":"房山区","address":"北京市房山区阎村镇大件路1号房桥家属15号楼","lng":116.034432,"lat":39.716908}},
{"type":"Feature","geometry":{"type":"Point","coordinates":[115.97195247679508,39.7638644764174]},"properties":{"uid":1056,"name":"北京市房山区中医医院东岭分院","province":"北京市","city":"北京市","area":"房山区","address":"北京市房山区东万路燕山羊耳峪北里6号楼西侧","lng":115.971952,"lat":39.763864}},
{"type":"Feature","geometry":{"type":"Point","coordinates":[116.3381900304932,39.742124798867124]},"properties":{"uid":1057,"name":"北京市仁和医院","province":"北京市","city":"北京市","area":"大兴区","address":"北京市大兴区兴丰大街1号","lng":116.33819,"lat":39.742125}},
{"type":"Feature","geometry":{"type":"Point","coordinates":[116.25387179138505,39.886501795384355]},"properties":{"uid":1058,"name":"武警北京市总队第三医院","province":"北京市","city":"北京市","area":"丰台区","address":"北京市丰台区小屯路10号","lng":116.253872,"lat":39.886502}},
{"type":"Feature","geometry":{"type":"Point","coordinates":[116.13553916683513,39.72909880286521]},"properties":{"uid":1059,"name":"北京中医药大学房山医院(良乡分院)","province":"北京市","city":"北京市","area":"房山区","address":"北京市房山区良乡镇西潞南大街甲8号","lng":116.135539,"lat":39.729099}},
{"type":"Feature","geometry":{"type":"Point","coordinates":[116.15087182557806,39.74755089193972]},"properties":{"uid":1060,"name":"房山区中医医院(月华分院)","province":"北京市","city":"北京市","area":"房山区","address":"北京市房山区月华北大街10号","lng":116.150872,"lat":39.747551}},
{"type":"Feature","geometry":{"type":"Point","coordinates":[116.37156721381311,39.84254064639577]},"properties":{"uid":1061,"name":"北京汇安中西医结合医院","province":"北京市","city":"北京市","area":"丰台区","address":"北京市丰台区马家堡西路26号院1号楼内","lng":116.371567,"lat":39.842541}},
{"type":"Feature","geometry":{"type":"Point","coordinates":[116.3097938149836,39.84770879822477]},"properties":{"uid":1062,"name":"北京市三环英和医院","province":"北京市","city":"北京市","area":"丰台区","address":"北京市丰台区丰桥路葛村西里1号","lng":116.309794,"lat":39.847709}},
{"type":"Feature","geometry":{"type":"Point","coordinates":[116.33024230299135,39.84762799199052]},"properties":{"uid":1063,"name":"北京丰台广济中西医结合医院","province":"北京市","city":"北京市","area":"丰台区","address":"北京市丰台区花乡纪家庙丰台东路169号","lng":116.330242,"lat":39.847628}},
{"type":"Feature","geometry":{"type":"Point","coordinates":[116.27519782683518,39.87098311614009]},"properties":{"uid":1064,"name":"北京丰台华山医院","province":"北京市","city":"北京市","area":"丰台区","address":"北京市丰台区卢沟桥路大井东里1号院","lng":116.275198,"lat":39.870983}},
{"type":"Feature","geometry":{"type":"Point","coordinates":[116.32187298733413,39.84744097881068]},"properties":{"uid":1065,"name":"北京华坛中西医结合医院","province":"北京市","city":"北京市","area":"丰台区","address":"北京市丰台区丰台东路育菲园东里4号","lng":116.321873,"lat":39.847441}},
{"type":"Feature","geometry":{"type":"Point","coordinates":[116.28097872151957,39.889221148621466]},"properties":{"uid":1066,"name":"北京长峰医院","province":"北京市","city":"北京市","area":"丰台区","address":"北京市丰台区靛厂路291号","lng":116.280979,"lat":39.889221}},
{"type":"Feature","geometry":{"type":"Point","coordinates":[116.32215557380329,39.871463265913796]},"properties":{"uid":1067,"name":"北京丰台三路居中西医结合医院","province":"北京市","city":"北京市","area":"丰台区","address":"北京市丰台区北京西站南路南口丽泽雅园E座","lng":116.322156,"lat":39.871463}},
{"type":"Feature","geometry":{"type":"Point","coordinates":[116.4038260945267,39.85587653760953]},"properties":{"uid":1068,"name":"北京丰台人和中医医院","province":"北京市","city":"北京市","area":"丰台区","address":"北京市丰台区南三环中路南木樨园66号","lng":116.403826,"lat":39.855877}},
{"type":"Feature","geometry":{"type":"Point","coordinates":[116.28310668736133,39.88587016217105]},"properties":{"uid":1069,"name":"北京丰台国康中西医结合医院","province":"北京市","city":"北京市","area":"丰台区","address":"北京市丰台区水衙沟路靛厂路甲410号","lng":116.283107,"lat":39.88587}},
{"type":"Feature","geometry":{"type":"Point","coordinates":[116.37648296354381,39.84151085526426]},"properties":{"uid":1070,"name":"北京丰台怡康医院","province":"北京市","city":"北京市","area":"丰台区","address":"北京市丰台区马家堡路69号","lng":116.376483,"lat":39.841511}},
{"type":"Feature","geometry":{"type":"Point","coordinates":[116.37811441137478,39.79511276190806]},"properties":{"uid":1071,"name":"北京华军中医医院","province":"北京市","city":"北京市","area":"丰台区","address":"北京市丰台区南苑团河路北口10号","lng":116.378114,"lat":39.795113}},
{"type":"Feature","geometry":{"type":"Point","coordinates":[116.41557809835514,39.8544482075734]},"properties":{"uid":1072,"name":"北京同仁堂第二中医医院","province":"北京市","city":"北京市","area":"丰台区","address":"北京市丰台区南三环中路20号","lng":116.415578,"lat":39.854448}},
{"type":"Feature","geometry":{"type":"Point","coordinates":[116.38909130636455,39.88778035384625]},"properties":{"uid":1073,"name":"北京市宣武中医医院","province":"北京市","city":"北京市","area":"西城区","address":"北京市西城区万明路13号","lng":116.389091,"lat":39.88778}},
{"type":"Feature","geometry":{"type":"Point","coordinates":[116.35069530005421,39.72138137635898]},"properties":{"uid":1074,"name":"北京友爱医院","province":"北京市","city":"北京市","area":"大兴区","address":"北京市大兴区海子角海北路38号","lng":116.350695,"lat":39.721381}},
{"type":"Feature","geometry":{"type":"Point","coordinates":[116.36400159888922,39.839798319389764]},"properties":{"uid":1075,"name":"北京西鹤年堂中医医院","province":"北京市","city":"北京市","area":"丰台区","address":"北京市丰台区嘉园路大台子路9号","lng":116.364002,"lat":39.839798}},
{"type":"Feature","geometry":{"type":"Point","coordinates":[116.36538683447456,39.83779381520913]},"properties":{"uid":1076,"name":"安太嘉园医院","province":"北京市","city":"北京市","area":"丰台区","address":"北京市丰台区嘉园路星河苑1号院18号楼","lng":116.365387,"lat":39.837794}},
{"type":"Feature","geometry":{"type":"Point","coordinates":[116.42529515323052,39.85451705374936]},"properties":{"uid":1077,"name":"北京恩生堂刘家窑中医医院","province":"北京市","city":"北京市","area":"丰台区","address":"北京市丰台区东铁匠营顺四条甲63号","lng":116.425295,"lat":39.854517}},
{"type":"Feature","geometry":{"type":"Point","coordinates":[116.31197684672769,39.75336424912939]},"properties":{"uid":1078,"name":"北京永林医院","province":"北京市","city":"北京市","area":"大兴区","address":"北京市大兴区枣园路29号院商业B座1-5层","lng":116.311977,"lat":39.753364}},
{"type":"Feature","geometry":{"type":"Point","coordinates":[116.12107072682049,39.72950894198721]},"properties":{"uid":1079,"name":"北京今康中医医院","province":"北京市","city":"北京市","area":"房山区","address":"北京市房山区良乡月华南大街8号","lng":116.121071,"lat":39.729509}},
{"type":"Feature","geometry":{"type":"Point","coordinates":[116.229719293053,39.89247291745259]},"properties":{"uid":1080,"name":"北京燕都中西医结合医院","province":"北京市","city":"北京市","area":"石景山区","address":"北京市石景山区鲁谷大街重兴嘉园1号楼","lng":116.229719,"lat":39.892473}},
{"type":"Feature","geometry":{"type":"Point","coordinates":[116.29398718008859,39.809776733898815]},"properties":{"uid":1081,"name":"北京时珍堂中西医结合医院","province":"北京市","city":"北京市","area":"丰台区","address":"北京市丰台区丰葆路198号","lng":116.293987,"lat":39.809777}},
{"type":"Feature","geometry":{"type":"Point","coordinates":[116.38781662777903,39.83247002655768]},"properties":{"uid":1082,"name":"北京卫人中医医院","province":"北京市","city":"北京市","area":"丰台区","address":"北京市丰台区南四环中路大红门西马场甲14号","lng":116.387817,"lat":39.83247}},
{"type":"Feature","geometry":{"type":"Point","coordinates":[116.33784046754742,39.84306410940644]},"properties":{"uid":1083,"name":"北京博仁医院","province":"北京市","city":"北京市","area":"丰台区","address":"北京市丰台区南三环郑王坟南6号A,B,C座","lng":116.33784,"lat":39.843064}},
{"type":"Feature","geometry":{"type":"Point","coordinates":[116.37378464742216,39.868539887088055]},"properties":{"uid":1084,"name":"北京博爱堂中医医院","province":"北京市","city":"北京市","area":"丰台区","address":"北京市丰台区开阳路一号瀚海花园大厦一层底商","lng":116.373785,"lat":39.86854}},
{"type":"Feature","geometry":{"type":"Point","coordinates":[116.35132092056168,39.87528804237421]},"properties":{"uid":1085,"name":"北京军颐中医医院","province":"北京市","city":"北京市","area":"西城区","address":"北京市西城区广安门南街54号(西二环白纸坊桥东南角)","lng":116.351321,"lat":39.875288}},
{"type":"Feature","geometry":{"type":"Point","coordinates":[116.42387935836699,39.88611925498999]},"properties":{"uid":1086,"name":"北京东城东华医院","province":"北京市","city":"北京市","area":"东城区","address":"北京市东城区体育馆西路6号","lng":116.423879,"lat":39.886119}},
{"type":"Feature","geometry":{"type":"Point","coordinates":[116.15036867718106,39.74209172400114]},"properties":{"uid":1087,"name":"北京中能建医院","province":"北京市","city":"北京市","area":"房山区","address":"北京市房山区良乡镇体育场路1号","lng":116.150369,"lat":39.742092}},
{"type":"Feature","geometry":{"type":"Point","coordinates":[116.14719554805522,39.732238961248434]},"properties":{"uid":1088,"name":"北京仁德医院","province":"北京市","city":"北京市","area":"房山区","address":"北京市房山区良乡昊天大街91号","lng":116.147196,"lat":39.732239}},
{"type":"Feature","geometry":{"type":"Point","coordinates":[116.09969363751136,39.723590188986684]},"properties":{"uid":1089,"name":"北京汇海中医医院","province":"北京市","city":"北京市","area":"房山区","address":"北京市房山区阎村镇S317前沿村村南","lng":116.099694,"lat":39.72359}},
{"type":"Feature","geometry":{"type":"Point","coordinates":[116.26230501068801,39.86604991946274]},"properties":{"uid":1090,"name":"北京丰台银龄中医医院","province":"北京市","city":"北京市","area":"丰台区","address":"北京市丰台区西四环五里店706号","lng":116.262305,"lat":39.86605}},
{"type":"Feature","geometry":{"type":"Point","coordinates":[116.36259474627265,39.883670063952145]},"properties":{"uid":1091,"name":"北京长安中西医结合医院","province":"北京市","city":"北京市","area":"西城区","address":"北京市西城区枣林前街19号","lng":116.362595,"lat":39.88367}},
{"type":"Feature","geometry":{"type":"Point","coordinates":[116.41156393925765,39.86030429077599]},"properties":{"uid":1092,"name":"北京崇文中方中医医院","province":"北京市","city":"北京市","area":"东城区","address":"北京市东城区安定路定安里27号","lng":116.411564,"lat":39.860304}},
{"type":"Feature","geometry":{"type":"Point","coordinates":[116.37251914770972,39.88864255809072]},"properties":{"uid":1093,"name":"北京鹤年堂中医医院","province":"北京市","city":"北京市","area":"西城区","address":"北京市西城区广安门内大街6号1-2号","lng":116.372519,"lat":39.888643}},
{"type":"Feature","geometry":{"type":"Point","coordinates":[116.21256449369754,39.68878362100024]},"properties":{"uid":1094,"name":"北京广阳博海医院","province":"北京市","city":"北京市","area":"房山区","address":"北京市房山区长阳镇G107夏场村1区1号","lng":116.212564,"lat":39.688784}},
{"type":"Feature","geometry":{"type":"Point","coordinates":[116.15094068877411,39.72379249125135]},"properties":{"uid":1095,"name":"北京中研中医院","province":"北京市","city":"北京市","area":"房山区","address":"北京市房山区良乡长虹东路玉竹园一里畅龙苑1号商业楼","lng":116.150941,"lat":39.723792}},
{"type":"Feature","geometry":{"type":"Point","coordinates":[116.41055129386807,39.893644780715086]},"properties":{"uid":1096,"name":"北京国龙中医医院","province":"北京市","city":"北京市","area":"东城区","address":"北京市东城区珠市口东大街155号","lng":116.410551,"lat":39.893645}},
{"type":"Feature","geometry":{"type":"Point","coordinates":[116.39460129599895,39.84096181870293]},"properties":{"uid":1097,"name":"木材厂职工医院","province":"北京市","city":"北京市","area":"丰台区","address":"北京市丰台区大红门街道大红门西路4号","lng":116.394601,"lat":39.840962}},
{"type":"Feature","geometry":{"type":"Point","coordinates":[116.38792616474744,39.86106534670899]},"properties":{"uid":1098,"name":"北京丰台中康中西医结合医院","province":"北京市","city":"北京市","area":"丰台区","address":"北京市丰台区西罗园四区34号","lng":116.387926,"lat":39.861065}},
{"type":"Feature","geometry":{"type":"Point","coordinates":[116.30908243558373,39.838316672004396]},"properties":{"uid":1099,"name":"北京丰台众仁堂中医医院","province":"北京市","city":"北京市","area":"丰台区","address":"北京市丰台区丰台南路82号附近","lng":116.309082,"lat":39.838317}},
{"type":"Feature","geometry":{"type":"Point","coordinates":[116.41749371866995,39.88858080091187]},"properties":{"uid":1100,"name":"北京市惠民医药卫生事业发展基金会北京炎黄中医医院","province":"北京市","city":"北京市","area":"东城区","address":"北京市东城区天坛路55号元隆大厦五层","lng":116.417494,"lat":39.888581}},
{"type":"Feature","geometry":{"type":"Point","coordinates":[116.40287644128979,39.88784169720029]},"properties":{"uid":1101,"name":"北京晶珠中医医院","province":"北京市","city":"北京市","area":"东城区","address":"北京市东城区精忠街5号","lng":116.402876,"lat":39.887842}},
{"type":"Feature","geometry":{"type":"Point","coordinates":[116.12517591495408,39.73136474878341]},"properties":{"uid":1102,"name":"北京华亚医院","province":"北京市","city":"北京市","area":"房山区","address":"北京市房山区良乡西路19号","lng":116.125176,"lat":39.731365}},
{"type":"Feature","geometry":{"type":"Point","coordinates":[116.36877784088414,39.86693144993954]},"properties":{"uid":1103,"name":"右外医院","province":"北京市","city":"北京市","area":"丰台区","address":"北京市丰台区右安门外开阳里二街5号","lng":116.368778,"lat":39.866931}},
{"type":"Feature","geometry":{"type":"Point","coordinates":[116.40451724561582,39.76669000755458]},"properties":{"uid":1104,"name":"北京华大肾安医院","province":"北京市","city":"北京市","area":"大兴区","address":"北京市大兴区西红门镇大生庄村西黄亦路23号","lng":116.404517,"lat":39.76669}},
{"type":"Feature","geometry":{"type":"Point","coordinates":[116.37274264252575,39.74227808084301]},"properties":{"uid":1105,"name":"北京市利康医院","province":"北京市","city":"北京市","area":"大兴区","address":"北京市大兴区团河路33号","lng":116.372743,"lat":39.742278}},
{"type":"Feature","geometry":{"type":"Point","coordinates":[116.1703921615412,39.85790370952626]},"properties":{"uid":1106,"name":"中国北方车辆研究所职工医院","province":"北京市","city":"北京市","area":"丰台区","address":"北京市丰台区大灰厂东路长辛店槐树岭4号院","lng":116.170392,"lat":39.857904}},
{"type":"Feature","geometry":{"type":"Point","coordinates":[116.36526151496045,39.86560658035455]},"properties":{"uid":1107,"name":"北京开阳中医医院","province":"北京市","city":"北京市","area":"丰台区","address":"北京市丰台区右安门外开阳里三街1号","lng":116.365262,"lat":39.865607}},
{"type":"Feature","geometry":{"type":"Point","coordinates":[116.28731511769897,39.84914663810723]},"properties":{"uid":1108,"name":"兴隆中医医院","province":"北京市","city":"北京市","area":"","address":"北京市丰台区","lng":116.287315,"lat":39.849147}},
{"type":"Feature","geometry":{"type":"Point","coordinates":[116.40901531445947,39.87382990406014]},"properties":{"uid":1109,"name":"北京施恩中医医院","province":"北京市","city":"北京市","area":"东城区","address":"北京市东城区永定门内东街中里3号","lng":116.409015,"lat":39.87383}},
{"type":"Feature","geometry":{"type":"Point","coordinates":[116.291755887921,39.855674463356706]},"properties":{"uid":1110,"name":"北京丰台医星中西医结合医院","province":"北京市","city":"北京市","area":"丰台区","address":"北京市丰台区东大街游泳场北路甲9号","lng":116.291756,"lat":39.855674}},
{"type":"Feature","geometry":{"type":"Point","coordinates":[116.49957483756664,39.766382569312135]},"properties":{"uid":1111,"name":"亦庄医院-南院","province":"北京市","city":"北京市","area":"大兴区","address":"北京市大兴区博兴八路12号","lng":116.499575,"lat":39.766383}},
{"type":"Feature","geometry":{"type":"Point","coordinates":[116.46720218667309,39.87107149623501]},"properties":{"uid":1112,"name":"北京中山医院","province":"北京市","city":"北京市","area":"朝阳区","address":"北京市朝阳区南新园中路112号楼","lng":116.467202,"lat":39.871071}},
{"type":"Feature","geometry":{"type":"Point","coordinates":[116.43751289373904,39.868923527114454]},"properties":{"uid":1113,"name":"北京丰台体坛中医医院","province":"北京市","city":"北京市","area":"丰台区","address":"北京市丰台区芳城路方庄芳城园1区1号楼","lng":116.437513,"lat":39.868924}},
{"type":"Feature","geometry":{"type":"Point","coordinates":[116.4856258443312,39.865077277781666]},"properties":{"uid":1114,"name":"北京圣马克医院","province":"北京市","city":"北京市","area":"朝阳区","address":"北京市朝阳区东四环南路53号院林达海渔广场5号楼","lng":116.485626,"lat":39.865077}},
{"type":"Feature","geometry":{"type":"Point","coordinates":[116.52216662400461,39.89091359643567]},"properties":{"uid":1115,"name":"北京世纪晨光医院","province":"北京市","city":"北京市","area":"朝阳区","address":"北京市朝阳区广渠路王四营观音惠园1号汇泰大厦","lng":116.522167,"lat":39.890914}},
{"type":"Feature","geometry":{"type":"Point","coordinates":[116.52359653924869,39.79428364958273]},"properties":{"uid":1116,"name":"北京荣华中西医结合医院","province":"北京市","city":"北京市","area":"大兴区","address":"北京市亦庄经济技术开发区同济中路7号","lng":116.523597,"lat":39.794284}},
{"type":"Feature","geometry":{"type":"Point","coordinates":[116.69588805246724,39.89324713540819]},"properties":{"uid":1117,"name":"北京运河中医医院","province":"北京市","city":"北京市","area":"通州区","address":"北京市通州区运河西大街17号","lng":116.695888,"lat":39.893247}},
{"type":"Feature","geometry":{"type":"Point","coordinates":[116.44558370200855,39.867506368204396]},"properties":{"uid":1118,"name":"北京高新医院","province":"北京市","city":"北京市","area":"朝阳区","address":"北京市朝阳区方庄东路9号","lng":116.445584,"lat":39.867506}},
{"type":"Feature","geometry":{"type":"Point","coordinates":[116.52692580526983,39.816181414397356]},"properties":{"uid":1119,"name":"北京军海医院","province":"北京市","city":"北京市","area":"大兴区","address":"北京市大兴区经海三路3号","lng":116.526926,"lat":39.816181}},
{"type":"Feature","geometry":{"type":"Point","coordinates":[116.49558089799531,39.874092279714255]},"properties":{"uid":1120,"name":"北京国华中医医院","province":"北京市","city":"北京市","area":"朝阳区","address":"北京市朝阳区世纪东方嘉园212号楼1-3号","lng":116.495581,"lat":39.874092}},
{"type":"Feature","geometry":{"type":"Point","coordinates":[116.43823074455096,39.89297749904724]},"properties":{"uid":1121,"name":"北京华都中医医院","province":"北京市","city":"北京市","area":"东城区","address":"北京市东城区广渠门内大街安化北里丙1号","lng":116.438231,"lat":39.892977}},
{"type":"Feature","geometry":{"type":"Point","coordinates":[116.54551289259048,39.75874663567476]},"properties":{"uid":1122,"name":"北京马驹桥中医医院","province":"北京市","city":"北京市","area":"通州区","address":"北京市通州区马驹桥镇新海东路11号楼102号,13号楼102号","lng":116.545513,"lat":39.758747}},
{"type":"Feature","geometry":{"type":"Point","coordinates":[116.46363975906789,39.87651144521523]},"properties":{"uid":1123,"name":"北京中海中医医院","province":"北京市","city":"北京市","area":"朝阳区","address":"北京市朝阳区松榆北路5号楼","lng":116.46364,"lat":39.876511}},
{"type":"Feature","geometry":{"type":"Point","coordinates":[116.46339864721456,39.883277387409215]},"properties":{"uid":1124,"name":"北京广仁中西医结合医院","province":"北京市","city":"北京市","area":"朝阳区","address":"北京市朝阳区东三环南路农光里112号楼南综合楼","lng":116.463399,"lat":39.883277}},
{"type":"Feature","geometry":{"type":"Point","coordinates":[116.48546452420702,39.86294537151484]},"properties":{"uid":1125,"name":"北京优联医院","province":"北京市","city":"北京市","area":"朝阳区","address":"北京市朝阳区东四环南路53号院1号楼1层部分3~11层部分","lng":116.485465,"lat":39.862945}},
{"type":"Feature","geometry":{"type":"Point","coordinates":[116.62985367414275,39.891133412766514]},"properties":{"uid":1126,"name":"北京通州通朝路中医医院","province":"北京市","city":"北京市","area":"通州区","address":"北京市通州区通朝大街怡乐园一区120号楼","lng":116.629854,"lat":39.891133}},
{"type":"Feature","geometry":{"type":"Point","coordinates":[116.48210045863787,39.87920660863221]},"properties":{"uid":1127,"name":"北京工业大学医院","province":"北京市","city":"北京市","area":"朝阳区","address":"北京市朝阳区北工大路平乐园100号","lng":116.4821,"lat":39.879207}},
{"type":"Feature","geometry":{"type":"Point","coordinates":[116.4465467905748,39.8493993978898]},"properties":{"uid":1128,"name":"北京金桥医院","province":"北京市","city":"北京市","area":"丰台区","address":"北京市丰台区成寿寺路中街甲88号","lng":116.446547,"lat":39.849399}},
{"type":"Feature","geometry":{"type":"Point","coordinates":[116.46211727746834,39.88736689721849]},"properties":{"uid":1129,"name":"北京维特奥医院","province":"北京市","city":"北京市","area":"朝阳区","address":"北京市朝阳区东三环南路乙52楼9-11号","lng":116.462117,"lat":39.887367}},
{"type":"Feature","geometry":{"type":"Point","coordinates":[116.46303846719712,39.86077189784591]},"properties":{"uid":1130,"name":"北京世华针刀中医医院","province":"北京市","city":"北京市","area":"朝阳区","address":"北京市朝阳区十八里店乡十里河路391号","lng":116.463038,"lat":39.860772}},
{"type":"Feature","geometry":{"type":"Point","coordinates":[116.43264760526068,39.85408445604229]},"properties":{"uid":1131,"name":"北京华博医院","province":"北京市","city":"北京市","area":"丰台区","address":"北京市丰台区永外横二条1号(东铁营桥往南500米路西)","lng":116.432648,"lat":39.854084}},
{"type":"Feature","geometry":{"type":"Point","coordinates":[116.45119765654941,39.87185246483803]},"properties":{"uid":1132,"name":"北京东方博大医院","province":"北京市","city":"北京市","area":"朝阳区","address":"北京市朝阳区华威西里55号","lng":116.451198,"lat":39.871852}},
{"type":"Feature","geometry":{"type":"Point","coordinates":[116.4726275315885,39.858625242199835]},"properties":{"uid":1133,"name":"北京十里河医院","province":"北京市","city":"北京市","area":"朝阳区","address":"北京市朝阳区十八里店乡周庄村周家庄136号","lng":116.472628,"lat":39.858625}},
{"type":"Feature","geometry":{"type":"Point","coordinates":[116.42619739164975,39.88351183781209]},"properties":{"uid":1134,"name":"国家体育总局运动医学研究所体育医院","province":"北京市","city":"北京市","area":"东城区","address":"北京市东城区体育馆路甲2号旁门","lng":116.426197,"lat":39.883512}},
{"type":"Feature","geometry":{"type":"Point","coordinates":[116.45552136330076,39.88272919349709]},"properties":{"uid":1135,"name":"北京华大中医医院","province":"北京市","city":"北京市","area":"朝阳区","address":"北京市朝阳区劲松中街劲松四区405号楼","lng":116.455521,"lat":39.882729}},
{"type":"Feature","geometry":{"type":"Point","coordinates":[116.54832791617847,39.76871684114763]},"properties":{"uid":1136,"name":"北京陆道培医院","province":"北京市","city":"北京市","area":"通州区","address":"北京市通州区亦庄经济技术开发区同济南路22号","lng":116.548328,"lat":39.768717}},
{"type":"Feature","geometry":{"type":"Point","coordinates":[116.63710855767033,39.87319901298557]},"properties":{"uid":1137,"name":"新华医院","province":"北京市","city":"北京市","area":"通州区","address":"北京市通州区京洲南街梨园镇中泽雅园7号楼8号10号底商","lng":116.637109,"lat":39.873199}},
{"type":"Feature","geometry":{"type":"Point","coordinates":[116.45904377816878,39.887650054065425]},"properties":{"uid":1138,"name":"华北理工大学教学医院","province":"北京市","city":"北京市","area":"","address":"劲松东街与垂杨柳南街交叉口东50米","lng":116.459044,"lat":39.88765}},
{"type":"Feature","geometry":{"type":"Point","coordinates":[116.32773409995161,40.05975305062323]},"properties":{"uid":1139,"name":"北京城北龙城医院","province":"北京市","city":"北京市","area":"昌平区","address":"北京市昌平区回龙观镇G6辅路金榜园小区","lng":116.327734,"lat":40.059753}},
{"type":"Feature","geometry":{"type":"Point","coordinates":[116.36057133036925,39.95831116947868]},"properties":{"uid":1140,"name":"北京中仁中医医院","province":"北京市","city":"北京市","area":"海淀区","address":"北京市海淀区学院南路1号","lng":116.360571,"lat":39.958311}},
{"type":"Feature","geometry":{"type":"Point","coordinates":[116.35808342266729,40.084999218095874]},"properties":{"uid":1141,"name":"北京睿养中医医院","province":"北京市","city":"北京市","area":"昌平区","address":"北京市昌平区回龙观镇良庄街4号楼","lng":116.358083,"lat":40.084999}},
{"type":"Feature","geometry":{"type":"Point","coordinates":[116.30926786029539,40.09544807394502]},"properties":{"uid":1142,"name":"北京农学院校医院","province":"北京市","city":"北京市","area":"昌平区","address":"北京市昌平区北农路7号","lng":116.309268,"lat":40.095448}},
{"type":"Feature","geometry":{"type":"Point","coordinates":[116.35762676033589,39.98225941143431]},"properties":{"uid":1143,"name":"北京大学第六医院","province":"北京市","city":"北京市","area":"海淀区","address":"北京市海淀区花园北路51号","lng":116.357627,"lat":39.982259}},
{"type":"Feature","geometry":{"type":"Point","coordinates":[116.47375549283258,40.01113746395909]},"properties":{"uid":1144,"name":"北京惠兰医院","province":"北京市","city":"北京市","area":"朝阳区","address":"北京市朝阳区望京北路18号","lng":116.473755,"lat":40.011137}},
{"type":"Feature","geometry":{"type":"Point","coordinates":[116.66228704404902,39.90059790904001]},"properties":{"uid":1145,"name":"北京市通州区中西医结合医院","province":"北京市","city":"北京市","area":"通州区","address":"北京市通州区车站路89号","lng":116.662287,"lat":39.900598}},
{"type":"Feature","geometry":{"type":"Point","coordinates":[116.43259719631898,40.0662397300021]},"properties":{"uid":1146,"name":"北京昌平天通仁和中医医院","province":"北京市","city":"北京市","area":"昌平区","address":"北京市昌平区太平庄中街天通苑东1区33号楼","lng":116.432597,"lat":40.06624}},
{"type":"Feature","geometry":{"type":"Point","coordinates":[116.43335308982033,40.06540467275021]},"properties":{"uid":1147,"name":"北京六合医院","province":"北京市","city":"北京市","area":"昌平区","address":"北京市昌平区太平庄中街天通苑东一区33号楼","lng":116.433353,"lat":40.065405}},
{"type":"Feature","geometry":{"type":"Point","coordinates":[116.43699035377226,40.0711335618121]},"properties":{"uid":1148,"name":"北京天苑医院","province":"北京市","city":"北京市","area":"昌平区","address":"北京市昌平区太平庄东一路天通苑东三区56号楼","lng":116.43699,"lat":40.071134}},
{"type":"Feature","geometry":{"type":"Point","coordinates":[116.46704821224138,40.002579829700345]},"properties":{"uid":1149,"name":"北京基恩医院","province":"北京市","city":"北京市","area":"朝阳区","address":"北京市朝阳区望京博泰国际B座2-3层","lng":116.467048,"lat":40.00258}},
{"type":"Feature","geometry":{"type":"Point","coordinates":[116.47317021215075,39.99727723472825]},"properties":{"uid":1150,"name":"北京善尔医院","province":"北京市","city":"北京市","area":"朝阳区","address":"北京市朝阳区望京西园四区412栋","lng":116.47317,"lat":39.997277}},
{"type":"Feature","geometry":{"type":"Point","coordinates":[116.48895628205828,39.98209671216615]},"properties":{"uid":1151,"name":"北京普祥医院","province":"北京市","city":"北京市","area":"朝阳区","address":"北京市朝阳区酒仙桥路大山子南里甲2号","lng":116.488956,"lat":39.982097}},
{"type":"Feature","geometry":{"type":"Point","coordinates":[116.46097729950846,39.93116830750507]},"properties":{"uid":1152,"name":"北京画美医院","province":"北京市","city":"北京市","area":"朝阳区","address":"北京市朝阳区东三环北路甲17号","lng":116.460977,"lat":39.931168}},
{"type":"Feature","geometry":{"type":"Point","coordinates":[116.4910564449568,39.966335566110466]},"properties":{"uid":1153,"name":"北京朝阳国医之家中医医院","province":"北京市","city":"北京市","area":"朝阳区","address":"北京市朝阳区酒仙桥路26号院1号楼","lng":116.491056,"lat":39.966336}},
{"type":"Feature","geometry":{"type":"Point","coordinates":[116.49119689944112,39.912483404731]},"properties":{"uid":1154,"name":"北京济民中医医院","province":"北京市","city":"北京市","area":"朝阳区","address":"北京市朝阳区东四环中路八里庄西里61号楼B区1-2层","lng":116.491197,"lat":39.912483}},
{"type":"Feature","geometry":{"type":"Point","coordinates":[116.46932722113313,39.93280724480423]},"properties":{"uid":1155,"name":"北京京师中医医院","province":"北京市","city":"北京市","area":"朝阳区","address":"北京市朝阳区农展馆南路团结湖北三条甲4号东院","lng":116.469327,"lat":39.932807}},
{"type":"Feature","geometry":{"type":"Point","coordinates":[116.59902904890481,39.91309430197301]},"properties":{"uid":1156,"name":"北京同春堂中医医院","province":"北京市","city":"北京市","area":"朝阳区","address":"北京市朝阳区管庄杨闸环岛西侧北角P3商业楼","lng":116.599029,"lat":39.913094}},
{"type":"Feature","geometry":{"type":"Point","coordinates":[116.46869168537566,40.00461210307118]},"properties":{"uid":1157,"name":"北京国宗济世中医医院","province":"北京市","city":"北京市","area":"朝阳区","address":"北京市朝阳区广顺北大街河荫中路望京西园二区底商综合楼","lng":116.468692,"lat":40.004612}},
{"type":"Feature","geometry":{"type":"Point","coordinates":[116.44169206879151,40.06902322247493]},"properties":{"uid":1158,"name":"北京广慈医院","province":"北京市","city":"北京市","area":"昌平区","address":"北京市昌平区东小口镇白坊路天通苑东三区48号楼-2-3号","lng":116.441692,"lat":40.069023}},
{"type":"Feature","geometry":{"type":"Point","coordinates":[116.64389859571244,39.901908657580115]},"properties":{"uid":1159,"name":"北京泗河中医医院","province":"北京市","city":"北京市","area":"通州区","address":"北京市通州区玉带河大街151号","lng":116.643899,"lat":39.901909}},
{"type":"Feature","geometry":{"type":"Point","coordinates":[116.47432017069987,39.95130766177182]},"properties":{"uid":1160,"name":"北京二十一世纪医院","province":"北京市","city":"北京市","area":"朝阳区","address":"北京市朝阳区亮马桥路甲40号二十一世纪大厦首层北段,二层","lng":116.47432,"lat":39.951308}},
{"type":"Feature","geometry":{"type":"Point","coordinates":[116.50508442025917,39.936415183983385]},"properties":{"uid":1161,"name":"汉典中医医院","province":"北京市","city":"北京市","area":"朝阳区","address":"北京市朝阳区石佛营东里133号院4号楼","lng":116.505084,"lat":39.936415}},
{"type":"Feature","geometry":{"type":"Point","coordinates":[116.55599916936639,40.100023354701065]},"properties":{"uid":1162,"name":"北京翰洁吉源医院","province":"北京市","city":"北京市","area":"顺义区","address":"北京市顺义区后沙峪裕东路3号","lng":116.555999,"lat":40.100023}},
{"type":"Feature","geometry":{"type":"Point","coordinates":[116.72106152102147,40.086926719033336]},"properties":{"uid":1163,"name":"北京顺欣阳光医院","province":"北京市","city":"北京市","area":"顺义区","address":"北京市顺义区潮白河畔右堤路东方太阳城万晴园104楼","lng":116.721062,"lat":40.086927}},
{"type":"Feature","geometry":{"type":"Point","coordinates":[116.54031927686252,39.89967729197896]},"properties":{"uid":1164,"name":"北京常春中医医院","province":"北京市","city":"北京市","area":"朝阳区","address":"北京市朝阳区高碑店乡高碑店村民俗文化街1702号","lng":116.540319,"lat":39.899677}},
{"type":"Feature","geometry":{"type":"Point","coordinates":[116.46071419579938,39.99652087546355]},"properties":{"uid":1165,"name":"北京凯尔医院","province":"北京市","city":"北京市","area":"朝阳区","address":"北京市朝阳区望京湖光中街8号1号楼西段第二,四层","lng":116.460714,"lat":39.996521}},
{"type":"Feature","geometry":{"type":"Point","coordinates":[116.52471147717596,39.91300661079777]},"properties":{"uid":1166,"name":"北京至微金诺医院","province":"北京市","city":"北京市","area":"朝阳区","address":"北京市朝阳区建国路29号兴隆家园29号楼","lng":116.524711,"lat":39.913007}},
{"type":"Feature","geometry":{"type":"Point","coordinates":[116.6578104446998,39.90359466260205]},"properties":{"uid":1167,"name":"北京北方红旗机电医院","province":"北京市","city":"北京市","area":"通州区","address":"北京市通州区新华南路71号","lng":116.65781,"lat":39.903595}},
{"type":"Feature","geometry":{"type":"Point","coordinates":[116.43513225530687,39.957805041771344]},"properties":{"uid":1168,"name":"北京中研万康中医医院","province":"北京市","city":"北京市","area":"朝阳区","address":"北京市朝阳区西坝河南路4号","lng":116.435132,"lat":39.957805}},
{"type":"Feature","geometry":{"type":"Point","coordinates":[116.56176526252011,40.1126869184876]},"properties":{"uid":1169,"name":"北京杏园金方国医医院","province":"北京市","city":"北京市","area":"顺义区","address":"北京市顺义区京密路后沙峪段5号","lng":116.561765,"lat":40.112687}},
{"type":"Feature","geometry":{"type":"Point","coordinates":[116.26808511195902,40.12484321875735]},"properties":{"uid":1170,"name":"北京市昌平区沙河中西医结合医院","province":"北京市","city":"北京市","area":"昌平区","address":"北京市昌平区沙河镇巩华城大街42号","lng":116.268085,"lat":40.124843}},
{"type":"Feature","geometry":{"type":"Point","coordinates":[116.25482201671139,40.14844136720534]},"properties":{"uid":1171,"name":"北京大卫中医医院","province":"北京市","city":"北京市","area":"昌平区","address":"北京市昌平区沙河镇满井村G6辅路满井西队03号","lng":116.254822,"lat":40.148441}},
{"type":"Feature","geometry":{"type":"Point","coordinates":[116.29304157191453,40.150043514176566]},"properties":{"uid":1172,"name":"京康医院","province":"北京市","city":"北京市","area":"昌平区","address":"北京市昌平区沙河镇松兰堡村西昌职路1号","lng":116.293042,"lat":40.150044}},
{"type":"Feature","geometry":{"type":"Point","coordinates":[116.26023128723241,40.22132975673289]},"properties":{"uid":1173,"name":"北京九洲医院","province":"北京市","city":"北京市","area":"昌平区","address":"北京市昌平区学府路宁馨苑小区13号楼","lng":116.260231,"lat":40.22133}},
{"type":"Feature","geometry":{"type":"Point","coordinates":[116.41521203389527,40.17991411006295]},"properties":{"uid":1174,"name":"北京九华医院","province":"北京市","city":"北京市","area":"昌平区","address":"北京市昌平区小汤山镇顺沙路九华山庄院内","lng":116.415212,"lat":40.179914}},
{"type":"Feature","geometry":{"type":"Point","coordinates":[116.30931339751265,40.20607743874601]},"properties":{"uid":1175,"name":"北京昌平政和中医医院","province":"北京市","city":"北京市","area":"昌平区","address":"北京市昌平区南邵镇金家坟昌金路6号","lng":116.309313,"lat":40.206077}},
{"type":"Feature","geometry":{"type":"Point","coordinates":[116.22186328293071,40.221066971078685]},"properties":{"uid":1176,"name":"北京中联燕龙医院","province":"北京市","city":"北京市","area":"昌平区","address":"北京市昌平区城角西路西关三角地综合楼12号","lng":116.221863,"lat":40.221067}},
{"type":"Feature","geometry":{"type":"Point","coordinates":[116.24728782848473,40.225264385791206]},"properties":{"uid":1177,"name":"中国政法大学校医院","province":"北京市","city":"北京市","area":"昌平区","address":"北京市昌平区府学路27号院2号楼","lng":116.247288,"lat":40.225264}},
{"type":"Feature","geometry":{"type":"Point","coordinates":[116.24556484069963,40.22068270953897]},"properties":{"uid":1178,"name":"中国石油大学校医院","province":"北京市","city":"北京市","area":"昌平区","address":"北京市昌平区府学路18号","lng":116.245565,"lat":40.220683}},
{"type":"Feature","geometry":{"type":"Point","coordinates":[116.27245657605792,40.14139742231906]},"properties":{"uid":1179,"name":"北京民康医院","province":"北京市","city":"北京市","area":"昌平区","address":"北京市昌平区沙河镇032县道北大桥东","lng":116.272457,"lat":40.141397}},
{"type":"Feature","geometry":{"type":"Point","coordinates":[116.23994757466977,40.22506664011212]},"properties":{"uid":1180,"name":"北京昌平京城博爱医院","province":"北京市","city":"北京市","area":"昌平区","address":"北京市昌平区东环路24号昌平一中西侧综合楼","lng":116.239948,"lat":40.225067}},
{"type":"Feature","geometry":{"type":"Point","coordinates":[116.2357629191677,40.20712403723611]},"properties":{"uid":1181,"name":"北京国一堂中医医院","province":"北京市","city":"北京市","area":"昌平区","address":"北京市昌平区振兴路8号","lng":116.235763,"lat":40.207124}},
{"type":"Feature","geometry":{"type":"Point","coordinates":[116.41437212008424,40.15012221182555]},"properties":{"uid":1182,"name":"北京太阳城医院","province":"北京市","city":"北京市","area":"昌平区","address":"北京市昌平区立汤路30号","lng":116.414372,"lat":40.150122}},
{"type":"Feature","geometry":{"type":"Point","coordinates":[116.22397947509465,40.22092285166375]},"properties":{"uid":1183,"name":"北京同康宁医院管理有限公司","province":"北京市","city":"北京市","area":"昌平区","address":"北京市昌平区城北街道政府街西路建明里东三门","lng":116.223979,"lat":40.220923}},
{"type":"Feature","geometry":{"type":"Point","coordinates":[116.6425367508659,40.1305529085009]},"properties":{"uid":1184,"name":"北京京顺医院","province":"北京市","city":"北京市","area":"顺义区","address":"北京市顺义区府前西街15号","lng":116.642537,"lat":40.130553}},
{"type":"Feature","geometry":{"type":"Point","coordinates":[116.65436536762681,40.2092813403918]},"properties":{"uid":1185,"name":"北京市顺义区第三医院","province":"北京市","city":"北京市","area":"顺义区","address":"北京市顺义区牛栏山镇府前街13号","lng":116.654365,"lat":40.209281}},
{"type":"Feature","geometry":{"type":"Point","coordinates":[116.57655086471954,40.12902182286943]},"properties":{"uid":1186,"name":"北京世源国泰医院","province":"北京市","city":"北京市","area":"顺义区","address":"北京市顺义区后沙峪镇顺于路9号","lng":116.576551,"lat":40.129022}},
{"type":"Feature","geometry":{"type":"Point","coordinates":[116.52952440259455,40.14948918089121]},"properties":{"uid":1187,"name":"北京强寿中医医院","province":"北京市","city":"北京市","area":"顺义区","address":"北京市顺义区顺沙路275号","lng":116.529524,"lat":40.149489}},
{"type":"Feature","geometry":{"type":"Point","coordinates":[116.66464456238472,40.12417602484745]},"properties":{"uid":1188,"name":"中国人民解放军六六0五五医院","province":"北京市","city":"北京市","area":"","address":"大东路与拥军路交叉口西北100米","lng":116.664645,"lat":40.124176}},
{"type":"Feature","geometry":{"type":"Point","coordinates":[116.5223367529876,40.125442404089554]},"properties":{"uid":1189,"name":"北京市顺义区空港医院董各庄社区卫生服务站","province":"北京市","city":"北京市","area":"顺义区","address":"北京市顺义区后沙峪镇董各庄村后街","lng":116.522337,"lat":40.125442}},
{"type":"Feature","geometry":{"type":"Point","coordinates":[116.81574018887886,40.154560590824865]},"properties":{"uid":1190,"name":"北京市顺义区第二医院一中社区卫生服务站","province":"北京市","city":"北京市","area":"顺义区","address":"北京市顺义区杨镇一中","lng":116.81574,"lat":40.154561}},
{"type":"Feature","geometry":{"type":"Point","coordinates":[116.81724110261409,40.1778580748913]},"properties":{"uid":1191,"name":"北京市顺义区第二医院沟东社区卫生服务站","province":"北京市","city":"北京市","area":"顺义区","address":"北京市顺义区杨镇沟东村","lng":116.817241,"lat":40.177858}},
{"type":"Feature","geometry":{"type":"Point","coordinates":[116.90815723319496,40.165660993179685]},"properties":{"uid":1192,"name":"顺义区医院东院区","province":"北京市","city":"北京市","area":"顺义区","address":"北京市顺义区张镇侯庄村赵四路侯庄段4号","lng":116.908157,"lat":40.165661}},
{"type":"Feature","geometry":{"type":"Point","coordinates":[116.82988580771016,40.165228063099754]},"properties":{"uid":1193,"name":"北京市顺义区第二医院二郎庙社区卫生服务站","province":"北京市","city":"北京市","area":"顺义区","address":"北京市顺义区杨镇二郎庙村二郎庙村东路","lng":116.829886,"lat":40.165228}},
{"type":"Feature","geometry":{"type":"Point","coordinates":[116.79947904320522,40.15041695397314]},"properties":{"uid":1194,"name":"北京市顺义区第二医院下营社区卫生服务站","province":"北京市","city":"北京市","area":"顺义区","address":"北京市顺义区杨镇下营村下营西大街","lng":116.799479,"lat":40.150417}},
{"type":"Feature","geometry":{"type":"Point","coordinates":[117.12125177431693,40.15634921240759]},"properties":{"uid":1195,"name":"北京市平谷区中医医院","province":"北京市","city":"北京市","area":"平谷区","address":"北京市平谷区平谷镇平翔路6号","lng":117.121252,"lat":40.156349}},
{"type":"Feature","geometry":{"type":"Point","coordinates":[117.10153103442434,40.14083594633264]},"properties":{"uid":1196,"name":"北京市平谷岳协医院","province":"北京市","city":"北京市","area":"平谷区","address":"北京市平谷区府前西街13号","lng":117.101531,"lat":40.140836}},
{"type":"Feature","geometry":{"type":"Point","coordinates":[117.10276286990897,40.162807709954734]},"properties":{"uid":1197,"name":"模拟医院","province":"北京市","city":"北京市","area":"平谷区","address":"北京市平谷区王辛庄镇校园路3号","lng":117.102763,"lat":40.162808}},
{"type":"Feature","geometry":{"type":"Point","coordinates":[117.12266179152282,40.14625792328414]},"properties":{"uid":1198,"name":"北京京谷友好医院","province":"北京市","city":"北京市","area":"平谷区","address":"北京市平谷区新平北路27号","lng":117.122662,"lat":40.146258}},
{"type":"Feature","geometry":{"type":"Point","coordinates":[117.12218029843659,40.142253552333734]},"properties":{"uid":1199,"name":"北京市慧慈医院","province":"北京市","city":"北京市","area":"平谷区","address":"北京市平谷区平谷镇新开街7号","lng":117.12218,"lat":40.142254}},
{"type":"Feature","geometry":{"type":"Point","coordinates":[114.6958442828081,38.621315483324416]},"properties":{"uid":4570,"name":"曲阳县人民医院","province":"河北省","city":"保定市","area":"曲阳县","address":"保定市曲阳县太行路","lng":114.695844,"lat":38.621315}},
{"type":"Feature","geometry":{"type":"Point","coordinates":[114.70622503714702,38.63319583112249]},"properties":{"uid":4571,"name":"曲阳县中医院","province":"河北省","city":"保定市","area":"曲阳县","address":"恒州镇北环路366号","lng":114.706225,"lat":38.633196}},
{"type":"Feature","geometry":{"type":"Point","coordinates":[114.84900844753136,38.715071724111354]},"properties":{"uid":4572,"name":"永良医院","province":"河北省","city":"保定市","area":"唐县","address":"保定市唐县北罗镇牛骆北罗村","lng":114.849008,"lat":38.715072}},
{"type":"Feature","geometry":{"type":"Point","coordinates":[114.70347744321766,38.61666906905772]},"properties":{"uid":4573,"name":"河北曲阳钓鱼台医院","province":"河北省","city":"保定市","area":"曲阳县","address":"恒州镇正阳街365号","lng":114.703477,"lat":38.616669}},
{"type":"Feature","geometry":{"type":"Point","coordinates":[114.70058302228519,38.632174465622114]},"properties":{"uid":4574,"name":"曲阳第五医院","province":"河北省","city":"保定市","area":"曲阳县","address":"恒州镇太行路107号","lng":114.700583,"lat":38.632174}},
{"type":"Feature","geometry":{"type":"Point","coordinates":[114.7385109270137,38.62245502796861]},"properties":{"uid":4575,"name":"河北省曲阳仁济医院","province":"河北省","city":"保定市","area":"曲阳县","address":"保定市曲阳县恒山东路659号","lng":114.738511,"lat":38.622455}},
{"type":"Feature","geometry":{"type":"Point","coordinates":[114.64216894004822,38.78563565341594]},"properties":{"uid":4576,"name":"灵山医院","province":"河北省","city":"保定市","area":"曲阳县","address":"河北省保定市曲阳县灵山镇附近","lng":114.642169,"lat":38.785636}},
{"type":"Feature","geometry":{"type":"Point","coordinates":[114.71938456715176,38.62085242197623]},"properties":{"uid":4577,"name":"曲阳县第二医院","province":"河北省","city":"保定市","area":"曲阳县","address":"保定市曲阳县恒山中路368号","lng":114.719385,"lat":38.620852}},
{"type":"Feature","geometry":{"type":"Point","coordinates":[114.7307773546897,38.62516150705569]},"properties":{"uid":4578,"name":"曲阳协和医院","province":"河北省","city":"保定市","area":"曲阳县","address":"保定市曲阳县恒阳街68号楼","lng":114.730777,"lat":38.625162}},
{"type":"Feature","geometry":{"type":"Point","coordinates":[114.72879302193945,38.62242172150135]},"properties":{"uid":4579,"name":"曲阳东城医院","province":"河北省","city":"保定市","area":"曲阳县","address":"恒州镇恒山路597号","lng":114.728793,"lat":38.622422}},
{"type":"Feature","geometry":{"type":"Point","coordinates":[114.69673639289034,38.624503640735945]},"properties":{"uid":4580,"name":"曲阳恒州医院","province":"河北省","city":"保定市","area":"曲阳县","address":"太行路运管站南200米","lng":114.696736,"lat":38.624504}},
{"type":"Feature","geometry":{"type":"Point","coordinates":[114.69928520915413,38.6299333954028]},"properties":{"uid":4581,"name":"曲阳第三医院","province":"河北省","city":"保定市","area":"曲阳县","address":"保定市曲阳县太行路59号","lng":114.699285,"lat":38.629933}},
{"type":"Feature","geometry":{"type":"Point","coordinates":[114.6943125010463,38.62109501521649]},"properties":{"uid":4582,"name":"拥军医院","province":"河北省","city":"保定市","area":"曲阳县","address":"河北省保定市曲阳县S232(太行路)","lng":114.694313,"lat":38.621095}},
{"type":"Feature","geometry":{"type":"Point","coordinates":[114.7007214163484,38.63360088953172]},"properties":{"uid":4583,"name":"曲阳第六医院","province":"河北省","city":"保定市","area":"曲阳县","address":"太行路2号附近","lng":114.700721,"lat":38.633601}},
{"type":"Feature","geometry":{"type":"Point","coordinates":[114.98608079468956,38.5126365303891]},"properties":{"uid":4584,"name":"定州市人民医院","province":"河北省","city":"保定市","area":"定州市","address":"保定市定州市建设街","lng":114.986081,"lat":38.512637}},
{"type":"Feature","geometry":{"type":"Point","coordinates":[114.94026003990189,38.54345616762186]},"properties":{"uid":4585,"name":"河北省第七人民医院","province":"河北省","city":"保定市","area":"定州市","address":"保定市定州市军工路389号","lng":114.94026,"lat":38.543456}},
{"type":"Feature","geometry":{"type":"Point","coordinates":[115.01763336761516,38.50842734402079]},"properties":{"uid":4586,"name":"定州市中医医院","province":"河北省","city":"保定市","area":"定州市","address":"河北省保定市定州市中山东路定州国际酒店对面","lng":115.017633,"lat":38.508427}},
{"type":"Feature","geometry":{"type":"Point","coordinates":[115.13538552970068,38.852426134732426]},"properties":{"uid":4587,"name":"顺平县医院","province":"河北省","city":"保定市","area":"顺平县","address":"保定市顺平县桃源东大街19号","lng":115.135386,"lat":38.852426}},
{"type":"Feature","geometry":{"type":"Point","coordinates":[115.13898266066256,38.708284598943656]},"properties":{"uid":4588,"name":"望都县医院","province":"河北省","city":"保定市","area":"望都县","address":"保定市望都县中华街62号","lng":115.138983,"lat":38.708285}},
{"type":"Feature","geometry":{"type":"Point","coordinates":[114.99477861608837,38.75228733098096]},"properties":{"uid":4589,"name":"康定医院","province":"河北省","city":"保定市","area":"唐县","address":"保定市唐县国防东路30号","lng":114.994779,"lat":38.752287}},
{"type":"Feature","geometry":{"type":"Point","coordinates":[114.97548176682776,38.74496257457928]},"properties":{"uid":4590,"name":"唐县中医院","province":"河北省","city":"保定市","area":"唐县","address":"保定市唐县唐尧路58号","lng":114.975482,"lat":38.744963}},
{"type":"Feature","geometry":{"type":"Point","coordinates":[115.1592109275738,38.71180981133186]},"properties":{"uid":4591,"name":"望都县中医院","province":"河北省","city":"保定市","area":"望都县","address":"保定市望都县昌平街46号","lng":115.159211,"lat":38.71181}},
{"type":"Feature","geometry":{"type":"Point","coordinates":[115.14354226993272,38.85331849988398]},"properties":{"uid":4592,"name":"顺平兴和医院","province":"河北省","city":"保定市","area":"顺平县","address":"保定市顺平县蒲阳镇永平路","lng":115.143542,"lat":38.853318}},
{"type":"Feature","geometry":{"type":"Point","coordinates":[114.91374356560839,38.55206267586726]},"properties":{"uid":4593,"name":"定州市赵村医院","province":"河北省","city":"保定市","area":"定州市","address":"河北省保定市定州市长安路附近","lng":114.913744,"lat":38.552063}},
{"type":"Feature","geometry":{"type":"Point","coordinates":[114.98073235357671,38.732570257044294]},"properties":{"uid":4594,"name":"开元医院","province":"河北省","city":"保定市","area":"唐县","address":"保定市唐县向阳南大街32号","lng":114.980732,"lat":38.73257}},
{"type":"Feature","geometry":{"type":"Point","coordinates":[115.13476927510203,38.711241468470995]},"properties":{"uid":4595,"name":"望都红十字医院","province":"河北省","city":"保定市","area":"望都县","address":"河北省保定市望都县望都红十字医院(永兴北街南)","lng":115.134769,"lat":38.711241}},
{"type":"Feature","geometry":{"type":"Point","coordinates":[114.99117003752328,38.51785992793653]},"properties":{"uid":4596,"name":"定州同仁医院","province":"河北省","city":"保定市","area":"定州市","address":"河北省保定市定州市清风北街净众院塔基地宫旁","lng":114.99117,"lat":38.51786}},
{"type":"Feature","geometry":{"type":"Point","coordinates":[115.14794044152379,38.848261728722775]},"properties":{"uid":4597,"name":"顺平县中医院","province":"河北省","city":"保定市","area":"顺平县","address":"平安东大街76","lng":115.14794,"lat":38.848262}},
{"type":"Feature","geometry":{"type":"Point","coordinates":[114.98275286424887,38.446742683810506]},"properties":{"uid":4598,"name":"定州东车寄医院","province":"河北省","city":"保定市","area":"定州市","address":"东车寄村附近","lng":114.982753,"lat":38.446743}},
{"type":"Feature","geometry":{"type":"Point","coordinates":[114.99862498995999,38.504879715083476]},"properties":{"uid":4599,"name":"明坛医院","province":"河北省","city":"保定市","area":"定州市","address":"中兴东路59","lng":114.998625,"lat":38.50488}},
{"type":"Feature","geometry":{"type":"Point","coordinates":[115.17718081102318,38.70439040444856]},"properties":{"uid":4600,"name":"望都康泰医院","province":"河北省","city":"保定市","area":"望都县","address":"河北省保定市望都县机动车检测线西(335省道)","lng":115.177181,"lat":38.70439}},
{"type":"Feature","geometry":{"type":"Point","coordinates":[114.98256276717619,38.75004028899352]},"properties":{"uid":4601,"name":"唐县仁济医院","province":"河北省","city":"保定市","area":"唐县","address":"河北省保定市唐县仁厚镇向阳北大街仁济医院(唐县政府北)","lng":114.982563,"lat":38.75004}},
{"type":"Feature","geometry":{"type":"Point","coordinates":[115.18468190076982,38.7149935431081]},"properties":{"uid":4602,"name":"望都县博爱医院","province":"河北省","city":"保定市","area":"望都县","address":"朝阳路42号附近","lng":115.184682,"lat":38.714994}},
{"type":"Feature","geometry":{"type":"Point","coordinates":[114.97420121604154,38.39866342574998]},"properties":{"uid":4603,"name":"定州市王村医院","province":"河北省","city":"保定市","area":"定州市","address":"定州市怀德初级中学附近","lng":114.974201,"lat":38.398663}},
{"type":"Feature","geometry":{"type":"Point","coordinates":[115.1318420647303,38.70233380828287]},"properties":{"uid":4604,"name":"望都县惠民医院","province":"河北省","city":"保定市","area":"望都县","address":"保定市望都县","lng":115.131842,"lat":38.702334}},
{"type":"Feature","geometry":{"type":"Point","coordinates":[115.14602148236699,38.709428759375356]},"properties":{"uid":4605,"name":"望都县优抚医院","province":"河北省","city":"保定市","area":"望都县","address":"中华西路63号","lng":115.146021,"lat":38.709429}},
{"type":"Feature","geometry":{"type":"Point","coordinates":[114.99431106445651,38.760833433610955]},"properties":{"uid":4606,"name":"唐县华康医院","province":"河北省","city":"保定市","area":"唐县","address":"S232与中山北大街交叉口东北200米","lng":114.994311,"lat":38.760833}},
{"type":"Feature","geometry":{"type":"Point","coordinates":[115.14128067559948,38.51534015225584]},"properties":{"uid":4607,"name":"北祝医院","province":"河北省","city":"保定市","area":"定州市","address":"保定市定州市北祝附近","lng":115.141281,"lat":38.51534}},
{"type":"Feature","geometry":{"type":"Point","coordinates":[114.99468006059219,38.747810819025055]},"properties":{"uid":4608,"name":"唐县协和医院","province":"河北省","city":"保定市","area":"唐县","address":"光明路与中山北大街交口东行50米","lng":114.99468,"lat":38.747811}},
{"type":"Feature","geometry":{"type":"Point","coordinates":[114.9803401794673,38.810958251460264]},"properties":{"uid":4609,"name":"显口医院","province":"河北省","city":"保定市","area":"唐县","address":"北店头乡东显口村","lng":114.98034,"lat":38.810958}},
{"type":"Feature","geometry":{"type":"Point","coordinates":[114.95775033540193,38.74043820077729]},"properties":{"uid":4610,"name":"中西医院","province":"河北省","city":"保定市","area":"唐县","address":"河北省保定市唐县都亭乡西环路首信配货站东北50米(唐县文杰轮胎经销处)","lng":114.95775,"lat":38.740438}},
{"type":"Feature","geometry":{"type":"Point","coordinates":[115.13173791427444,38.850426628342255]},"properties":{"uid":4611,"name":"顺平同德医院","province":"河北省","city":"保定市","area":"顺平县","address":"顺平县桃源西大街32号","lng":115.131738,"lat":38.850427}},
{"type":"Feature","geometry":{"type":"Point","coordinates":[115.03942260657168,38.62532725360959]},"properties":{"uid":4612,"name":"荟萃医院","province":"河北省","city":"保定市","area":"唐县","address":"河北省保定市唐县王京镇荟萃医院","lng":115.039423,"lat":38.625327}},
{"type":"Feature","geometry":{"type":"Point","coordinates":[114.97072063640988,38.46236793317997]},"properties":{"uid":4613,"name":"定州市民生医院","province":"河北省","city":"保定市","area":"定州市","address":"定州市石家庄市新乐市G4京港澳高速","lng":114.970721,"lat":38.462368}},
{"type":"Feature","geometry":{"type":"Point","coordinates":[114.98318470950433,38.5114813819714]},"properties":{"uid":4614,"name":"定州市人民医院-南院","province":"河北省","city":"保定市","area":"定州市","address":"河北省保定市定州市中兴西路116号","lng":114.983185,"lat":38.511481}},
{"type":"Feature","geometry":{"type":"Point","coordinates":[114.98024535587408,38.735414310276305]},"properties":{"uid":4615,"name":"唐县南环医院","province":"河北省","city":"保定市","area":"唐县","address":"向阳南大街与南环路交汇","lng":114.980245,"lat":38.735414}},
{"type":"Feature","geometry":{"type":"Point","coordinates":[114.94134644992488,38.50779185075117]},"properties":{"uid":4616,"name":"定州市环城医院","province":"河北省","city":"保定市","area":"定州市","address":"河北省定州市西城区街道107国道196加油站东","lng":114.941346,"lat":38.507792}},
{"type":"Feature","geometry":{"type":"Point","coordinates":[114.99187883096634,38.51037399944852]},"properties":{"uid":4617,"name":"宝塔医院","province":"河北省","city":"保定市","area":"定州市","address":"清风南街83","lng":114.991879,"lat":38.510374}},
{"type":"Feature","geometry":{"type":"Point","coordinates":[114.99248976207306,38.74954527691225]},"properties":{"uid":4618,"name":"明仁医院","province":"河北省","city":"保定市","area":"唐县","address":"中山北大街4","lng":114.99249,"lat":38.749545}},
{"type":"Feature","geometry":{"type":"Point","coordinates":[114.91507409674837,38.49579310382717]},"properties":{"uid":4619,"name":"定州市惠仁医院","province":"河北省","city":"保定市","area":"定州市","address":"河北省定州市明月店镇定州惠仁医院","lng":114.915074,"lat":38.495793}},
{"type":"Feature","geometry":{"type":"Point","coordinates":[115.11706677701886,38.719192689867924]},"properties":{"uid":4620,"name":"仁爱医院","province":"河北省","city":"保定市","area":"望都县","address":"河北省保定市望都县335省道北","lng":115.117067,"lat":38.719193}},
{"type":"Feature","geometry":{"type":"Point","coordinates":[114.9670112513049,38.767469891935924]},"properties":{"uid":4621,"name":"唐县福康医院","province":"河北省","city":"保定市","area":"唐县","address":"仁厚镇","lng":114.967011,"lat":38.76747}},
{"type":"Feature","geometry":{"type":"Point","coordinates":[115.14599828679742,38.70925683903575]},"properties":{"uid":4622,"name":"保定市二院帮扶医院","province":"河北省","city":"保定市","area":"望都县","address":"中华西路65号附近","lng":115.145998,"lat":38.709257}},
{"type":"Feature","geometry":{"type":"Point","coordinates":[114.9023799651131,38.799860110666245]},"properties":{"uid":4623,"name":"北店头乡医院","province":"河北省","city":"保定市","area":"唐县","address":"北店头乡附近","lng":114.90238,"lat":38.79986}},
{"type":"Feature","geometry":{"type":"Point","coordinates":[115.33099523765712,38.416637072548646]},"properties":{"uid":4624,"name":"安国市医院","province":"河北省","city":"保定市","area":"安国市","address":"河北省保定市安国市祁州大路70号","lng":115.330995,"lat":38.416637}},
{"type":"Feature","geometry":{"type":"Point","coordinates":[115.46303993999568,38.456440768889756]},"properties":{"uid":4625,"name":"博野县医院","province":"河北省","city":"保定市","area":"博野县","address":"保定市博野县博兴中路88号","lng":115.46304,"lat":38.456441}},
{"type":"Feature","geometry":{"type":"Point","coordinates":[115.47361799008587,38.85021866429686]},"properties":{"uid":4626,"name":"华医医院","province":"河北省","city":"保定市","area":"莲池区","address":"河北省保定市莲池区建国路69号","lng":115.473618,"lat":38.850219}},
{"type":"Feature","geometry":{"type":"Point","coordinates":[115.33284703164999,38.43433042224875]},"properties":{"uid":4627,"name":"安国市中医院","province":"河北省","city":"保定市","area":"安国市","address":"河北省安国市朝阳路2号","lng":115.332847,"lat":38.43433}},
{"type":"Feature","geometry":{"type":"Point","coordinates":[115.48095340175551,38.85199000522124]},"properties":{"uid":4628,"name":"河北农大医院","province":"河北省","city":"保定市","area":"莲池区","address":"莲池区灵雨寺街289号(鑫丰市场对面)","lng":115.480953,"lat":38.85199}},
{"type":"Feature","geometry":{"type":"Point","coordinates":[115.45466300719399,38.8216173419521]},"properties":{"uid":4629,"name":"保定市莲池区第二医院","province":"河北省","city":"保定市","area":"莲池区","address":"河北省保定市莲池区乐凯南大街2926号","lng":115.454663,"lat":38.821617}},
{"type":"Feature","geometry":{"type":"Point","coordinates":[115.37329434375005,38.80839502151275]},"properties":{"uid":4630,"name":"满城第二中医医院","province":"河北省","city":"保定市","area":"竞秀区","address":"保定市竞秀区于家庄乡郎村永新路附近","lng":115.373294,"lat":38.808395}},
{"type":"Feature","geometry":{"type":"Point","coordinates":[115.32470761549598,38.42459297234539]},"properties":{"uid":4631,"name":"药市医院","province":"河北省","city":"保定市","area":"安国市","address":"河北省保定市安国市药市北大街97号","lng":115.324708,"lat":38.424593}},
{"type":"Feature","geometry":{"type":"Point","coordinates":[115.47162760371697,38.45750387708995]},"properties":{"uid":4632,"name":"博野县中医院","province":"河北省","city":"保定市","area":"博野县","address":"保定市博野县博兴东路1号","lng":115.471628,"lat":38.457504}},
{"type":"Feature","geometry":{"type":"Point","coordinates":[115.47505569887076,38.65868719576525]},"properties":{"uid":4633,"name":"清苑保衡医院","province":"河北省","city":"保定市","area":"清苑区","address":"保定市清苑区张登镇张登屯村张登屯路西50米","lng":115.475056,"lat":38.658687}},
{"type":"Feature","geometry":{"type":"Point","coordinates":[115.32703448917721,38.4214418930549]},"properties":{"uid":4634,"name":"安国药华医院","province":"河北省","city":"保定市","area":"安国市","address":"药华大路156号","lng":115.327034,"lat":38.421442}},
{"type":"Feature","geometry":{"type":"Point","coordinates":[115.31691712714539,38.439316301605665]},"properties":{"uid":4635,"name":"北京中医医院(安国分院)","province":"河北省","city":"保定市","area":"安国市","address":"保定市安国市","lng":115.316917,"lat":38.439316}},
{"type":"Feature","geometry":{"type":"Point","coordinates":[115.32494260629954,38.77552738690576]},"properties":{"uid":4636,"name":"谢上医院","province":"河北省","city":"保定市","area":"清苑区","address":"魏村镇谢上村","lng":115.324943,"lat":38.775527}},
{"type":"Feature","geometry":{"type":"Point","coordinates":[115.33983880291649,38.423312872581306]},"properties":{"uid":4637,"name":"东方药城医院","province":"河北省","city":"保定市","area":"安国市","address":"东方药城药兴路33号","lng":115.339839,"lat":38.423313}},
{"type":"Feature","geometry":{"type":"Point","coordinates":[115.47467899249108,38.83807840926347]},"properties":{"uid":4638,"name":"保定惠宝医院","province":"河北省","city":"保定市","area":"莲池区","address":"保定市莲池区利民路338号","lng":115.474679,"lat":38.838078}},
{"type":"Feature","geometry":{"type":"Point","coordinates":[115.47169131313464,38.45760106500616]},"properties":{"uid":4639,"name":"河北省中医院协作医院","province":"河北省","city":"保定市","area":"博野县","address":"河北省保定市博野县博兴东路1号","lng":115.471691,"lat":38.457601}},
{"type":"Feature","geometry":{"type":"Point","coordinates":[115.21870989044588,38.6418577346529]},"properties":{"uid":4640,"name":"望都县中韩庄医院","province":"河北省","city":"保定市","area":"望都县","address":"中韩庄附近","lng":115.21871,"lat":38.641858}},
{"type":"Feature","geometry":{"type":"Point","coordinates":[115.4049153512902,38.850636263047576]},"properties":{"uid":4641,"name":"保定西湖医院","province":"河北省","city":"保定市","area":"竞秀区","address":"西二环西50米","lng":115.404915,"lat":38.850636}},
{"type":"Feature","geometry":{"type":"Point","coordinates":[115.49224919068779,38.77715828576982]},"properties":{"uid":4642,"name":"清苑心脑血管医院","province":"河北省","city":"保定市","area":"清苑区","address":"保定市清苑区清苑北街502号","lng":115.492249,"lat":38.777158}},
{"type":"Feature","geometry":{"type":"Point","coordinates":[115.47404052390156,38.459969143629074]},"properties":{"uid":4643,"name":"曙光医院","province":"河北省","city":"保定市","area":"博野县","address":"博明东路59号","lng":115.474041,"lat":38.459969}},
{"type":"Feature","geometry":{"type":"Point","coordinates":[115.38054042310259,38.5298499072384]},"properties":{"uid":4644,"name":"城东敬老院医院","province":"河北省","city":"保定市","area":"博野县","address":"城东乡附近","lng":115.38054,"lat":38.52985}},
{"type":"Feature","geometry":{"type":"Point","coordinates":[115.44642883625406,38.45534305474572]},"properties":{"uid":4645,"name":"博野安颐医院","province":"河北省","city":"保定市","area":"博野县","address":"河北省保定市博野县博兴西路370号","lng":115.446429,"lat":38.455343}},
{"type":"Feature","geometry":{"type":"Point","coordinates":[115.32921293966315,38.43422764546865]},"properties":{"uid":4646,"name":"优抚医院","province":"河北省","city":"保定市","area":"安国市","address":"祁州药市街道朝阳路8号","lng":115.329213,"lat":38.434228}},
{"type":"Feature","geometry":{"type":"Point","coordinates":[115.59809918789765,38.496690142838204]},"properties":{"uid":4647,"name":"蠡县医院","province":"河北省","city":"保定市","area":"蠡县","address":"紫薇东路66号","lng":115.598099,"lat":38.49669}},
{"type":"Feature","geometry":{"type":"Point","coordinates":[115.5795590978402,38.486377736107166]},"properties":{"uid":4648,"name":"蠡县中医院","province":"河北省","city":"保定市","area":"蠡县","address":"蠡吾南大街508-630号(河北省蠡县农业机械技术推广站北)","lng":115.579559,"lat":38.486378}},
{"type":"Feature","geometry":{"type":"Point","coordinates":[115.75527837834477,38.6855773231236]},"properties":{"uid":4649,"name":"高阳县医院","province":"河北省","city":"保定市","area":"高阳县","address":"保定市高阳县宏润大街112号","lng":115.755278,"lat":38.685577}},
{"type":"Feature","geometry":{"type":"Point","coordinates":[115.51949001646878,38.84731388384522]},"properties":{"uid":4650,"name":"保定市中医院","province":"河北省","city":"保定市","area":"莲池区","address":"天威东路538号","lng":115.51949,"lat":38.847314}},
{"type":"Feature","geometry":{"type":"Point","coordinates":[115.49832940916883,38.83868854772385]},"properties":{"uid":4651,"name":"古城文军中医院","province":"河北省","city":"保定市","area":"莲池区","address":"河北省保定市莲池区莲池南大街1216号","lng":115.498329,"lat":38.838689}},
{"type":"Feature","geometry":{"type":"Point","coordinates":[115.77910122827686,38.689493105034735]},"properties":{"uid":4652,"name":"高阳县中医院","province":"河北省","city":"保定市","area":"高阳县","address":"兴阳路178","lng":115.779101,"lat":38.689493}},
{"type":"Feature","geometry":{"type":"Point","coordinates":[115.50762012899662,38.832452406405714]},"properties":{"uid":4653,"name":"保定桥东医院","province":"河北省","city":"保定市","area":"莲池区","address":"河北省保定市莲池区长城南大街通城南路2号(黄庄村村口东行50米)","lng":115.50762,"lat":38.832452}},
{"type":"Feature","geometry":{"type":"Point","coordinates":[115.51020333143472,38.57372212454706]},"properties":{"uid":4654,"name":"蠡县北城医院","province":"河北省","city":"保定市","area":"蠡县","address":"保定市蠡县温留路宋庄村","lng":115.510203,"lat":38.573722}},