{"type":"FeatureCollection", "features": [
{"type":"Feature","geometry":{"type":"Point","coordinates":[105.0523988905349,35.69500842977837]},"properties":{"uid":1646,"name":"会宁县中医院","province":"甘肃省","city":"白银市","area":"会宁县","address":"白银市会宁县会师镇枝阳巷12号","lng":105.052399,"lat":35.695008}},
{"type":"Feature","geometry":{"type":"Point","coordinates":[105.03474562499865,35.70961585398339]},"properties":{"uid":1647,"name":"白银市第三人民医院","province":"甘肃省","city":"白银市","area":"会宁县","address":"白银市会宁县长征中路199号","lng":105.034746,"lat":35.709616}},
{"type":"Feature","geometry":{"type":"Point","coordinates":[104.1744938329033,36.55154804176157]},"properties":{"uid":1648,"name":"白银市第一人民医院","province":"甘肃省","city":"白银市","area":"白银区","address":"白银市白银区四龙路222号","lng":104.174494,"lat":36.551548}},
{"type":"Feature","geometry":{"type":"Point","coordinates":[104.17638493809872,36.54275669674291]},"properties":{"uid":1649,"name":"白银市第二人民医院","province":"甘肃省","city":"白银市","area":"白银区","address":"白银市白银区公园路509号","lng":104.176385,"lat":36.542757}},
{"type":"Feature","geometry":{"type":"Point","coordinates":[104.13425607573852,36.5388969664312]},"properties":{"uid":1650,"name":"甘肃省中医院(白银分院)","province":"甘肃省","city":"白银市","area":"白银区","address":"白银市白银区长安路71号","lng":104.134256,"lat":36.538897}},
{"type":"Feature","geometry":{"type":"Point","coordinates":[104.17032017696614,36.54576923339596]},"properties":{"uid":1651,"name":"白银爱心医院","province":"甘肃省","city":"白银市","area":"白银区","address":"北京路9号惊泓大厦内","lng":104.17032,"lat":36.545769}},
{"type":"Feature","geometry":{"type":"Point","coordinates":[104.17288015645694,36.557528178191745]},"properties":{"uid":1652,"name":"兰州市第四人民医院(白银分院)","province":"甘肃省","city":"白银市","area":"白银区","address":"货场路向北20米","lng":104.17288,"lat":36.557528}},
{"type":"Feature","geometry":{"type":"Point","coordinates":[104.17375100710841,36.55069562969013]},"properties":{"uid":1653,"name":"白银市第一人民医院-行政办公","province":"甘肃省","city":"白银市","area":"白银区","address":"甘肃省白银市白银区四龙路222号","lng":104.173751,"lat":36.550696}},
{"type":"Feature","geometry":{"type":"Point","coordinates":[104.68161380336011,36.56743153906207]},"properties":{"uid":1654,"name":"靖远县人民医院","province":"甘肃省","city":"白银市","area":"靖远县","address":"白银市靖远县乌兰镇新城村12号","lng":104.681614,"lat":36.567432}},
{"type":"Feature","geometry":{"type":"Point","coordinates":[104.67880377296785,36.55723933597834]},"properties":{"uid":1655,"name":"靖远县中医院","province":"甘肃省","city":"白银市","area":"靖远县","address":"白银市靖远县西大街四道南巷63号","lng":104.678804,"lat":36.557239}},
{"type":"Feature","geometry":{"type":"Point","coordinates":[104.84359094161485,36.72314092439569]},"properties":{"uid":1656,"name":"靖远煤业集团总医院","province":"甘肃省","city":"白银市","area":"平川区","address":"白银市平川区宝积路","lng":104.843591,"lat":36.723141}},
{"type":"Feature","geometry":{"type":"Point","coordinates":[104.84306979411622,36.72042992910338]},"properties":{"uid":1657,"name":"平川红十字济民医院","province":"甘肃省","city":"白银市","area":"平川区","address":"平唐路附近","lng":104.84307,"lat":36.72043}},
{"type":"Feature","geometry":{"type":"Point","coordinates":[104.96795023602839,36.12025846281146]},"properties":{"uid":1658,"name":"河畔医院","province":"甘肃省","city":"白银市","area":"会宁县","address":"甘肃省白银市会宁县Y491(河招段)","lng":104.96795,"lat":36.120258}},
{"type":"Feature","geometry":{"type":"Point","coordinates":[105.02086467372762,36.660649497171775]},"properties":{"uid":1659,"name":"红会医院","province":"甘肃省","city":"白银市","area":"平川区","address":"甘肃省白银市平川区Y489(红会段)","lng":105.020865,"lat":36.660649}},
{"type":"Feature","geometry":{"type":"Point","coordinates":[104.82563163184216,36.726618217402994]},"properties":{"uid":1660,"name":"平川东顺医院","province":"甘肃省","city":"白银市","area":"平川区","address":"白银市平川区长征东路53号","lng":104.825632,"lat":36.726618}},
{"type":"Feature","geometry":{"type":"Point","coordinates":[104.06234616380885,37.19643470978327]},"properties":{"uid":1661,"name":"景泰县中医院","province":"甘肃省","city":"白银市","area":"景泰县","address":"白银市景泰县一条山镇昌林路705号","lng":104.062346,"lat":37.196435}},
{"type":"Feature","geometry":{"type":"Point","coordinates":[104.07011703294096,37.19198754124364]},"properties":{"uid":1662,"name":"景泰县人民医院","province":"甘肃省","city":"白银市","area":"景泰县","address":"白银市景泰县一条山镇南街1号","lng":104.070117,"lat":37.191988}},
{"type":"Feature","geometry":{"type":"Point","coordinates":[104.01783392341925,34.43270158528089]},"properties":{"uid":1663,"name":"岷县人民医院","province":"甘肃省","city":"定西市","area":"岷县","address":"定西市岷县岷阳镇岷州西路","lng":104.017834,"lat":34.432702}},
{"type":"Feature","geometry":{"type":"Point","coordinates":[104.03522145535798,34.43717785896421]},"properties":{"uid":1664,"name":"岷县中医院","province":"甘肃省","city":"定西市","area":"岷县","address":"甘肃省定西市岷县岷阳镇和平街2号","lng":104.035221,"lat":34.437178}},
{"type":"Feature","geometry":{"type":"Point","coordinates":[104.03135676639738,34.4396510130588]},"properties":{"uid":1665,"name":"岷县协和医院","province":"甘肃省","city":"定西市","area":"岷县","address":"甘肃省定西市岷县S306(岷州中路)","lng":104.031357,"lat":34.439651}},
{"type":"Feature","geometry":{"type":"Point","coordinates":[104.66252044162351,34.990628769403806]},"properties":{"uid":1666,"name":"陇西县第一人民医院","province":"甘肃省","city":"定西市","area":"陇西县","address":"定西市陇西县长安大道","lng":104.66252,"lat":34.990629}},
{"type":"Feature","geometry":{"type":"Point","coordinates":[104.69857148839291,34.94878005060853]},"properties":{"uid":1667,"name":"陇西县第二人民医院","province":"甘肃省","city":"定西市","area":"陇西县","address":"定西市陇西县文峰镇交通路26号","lng":104.698571,"lat":34.94878}},
{"type":"Feature","geometry":{"type":"Point","coordinates":[104.66089997406579,35.01424619291878]},"properties":{"uid":1668,"name":"陇西县中医医院","province":"甘肃省","city":"定西市","area":"陇西县","address":"定西市陇西县巩昌镇药都大道西路","lng":104.6609,"lat":35.014246}},
{"type":"Feature","geometry":{"type":"Point","coordinates":[104.4623232734986,34.84103247108568]},"properties":{"uid":1669,"name":"漳县中医院","province":"甘肃省","city":"定西市","area":"漳县","address":"定西市漳县武阳镇滨河路中段","lng":104.462323,"lat":34.841032}},
{"type":"Feature","geometry":{"type":"Point","coordinates":[104.47388218405507,34.84839556084059]},"properties":{"uid":1670,"name":"漳县人民医院","province":"甘肃省","city":"定西市","area":"漳县","address":"甘肃省定西市漳县武阳镇武阳路35号","lng":104.473882,"lat":34.848396}},
{"type":"Feature","geometry":{"type":"Point","coordinates":[104.64413063636067,35.00078963186074]},"properties":{"uid":1671,"name":"陇西新同济医院","province":"甘肃省","city":"定西市","area":"陇西县","address":"定西市陇西县景家桥3号楼","lng":104.644131,"lat":35.00079}},
{"type":"Feature","geometry":{"type":"Point","coordinates":[104.70157988032962,34.953679622332636]},"properties":{"uid":1672,"name":"天水第四人民医院(陇西分院)","province":"甘肃省","city":"定西市","area":"陇西县","address":"甘肃省定西市陇西县定西市第四人民医院陇西分院(人民路南)","lng":104.70158,"lat":34.95368}},
{"type":"Feature","geometry":{"type":"Point","coordinates":[104.64326542280862,35.007313607616844]},"properties":{"uid":1673,"name":"陇西县中西医结合医院","province":"甘肃省","city":"定西市","area":"陇西县","address":"定西市陇西县巩昌镇北关交通路23号","lng":104.643265,"lat":35.007314}},
{"type":"Feature","geometry":{"type":"Point","coordinates":[104.23269263262763,35.14663861371663]},"properties":{"uid":1674,"name":"渭源县中医院","province":"甘肃省","city":"定西市","area":"渭源县","address":"定西市渭源县清源镇柯寨村杜家庄社兰海高速","lng":104.232693,"lat":35.146639}},
{"type":"Feature","geometry":{"type":"Point","coordinates":[104.19926078164463,35.12152291967043]},"properties":{"uid":1675,"name":"渭源县人民医院","province":"甘肃省","city":"定西市","area":"渭源县","address":"定西市渭源县清源镇上磨村西环路","lng":104.199261,"lat":35.121523}},
{"type":"Feature","geometry":{"type":"Point","coordinates":[104.21205009571572,35.13359774717772]},"properties":{"uid":1676,"name":"渭源县博爱医院","province":"甘肃省","city":"定西市","area":"渭源县","address":"平桥路57号","lng":104.21205,"lat":35.133598}},
{"type":"Feature","geometry":{"type":"Point","coordinates":[104.61037849135948,35.59660797483818]},"properties":{"uid":1677,"name":"定西市人民医院","province":"甘肃省","city":"定西市","area":"安定区","address":"定西市安定区安定路22号","lng":104.610378,"lat":35.596608}},
{"type":"Feature","geometry":{"type":"Point","coordinates":[104.61935878623876,35.57126009057808]},"properties":{"uid":1678,"name":"定西市第二人民医院","province":"甘肃省","city":"定西市","area":"安定区","address":"定西市安定区镇龙路149号","lng":104.619359,"lat":35.57126}},
{"type":"Feature","geometry":{"type":"Point","coordinates":[104.62538610332723,35.579182283457186]},"properties":{"uid":1679,"name":"定西市中医院","province":"甘肃省","city":"定西市","area":"安定区","address":"定西市安定区解放路31号","lng":104.625386,"lat":35.579182}},
{"type":"Feature","geometry":{"type":"Point","coordinates":[104.61817974325461,35.57747046877234]},"properties":{"uid":1680,"name":"定西卫校附属医院","province":"甘肃省","city":"定西市","area":"安定区","address":"大同巷7号","lng":104.61818,"lat":35.57747}},
{"type":"Feature","geometry":{"type":"Point","coordinates":[102.07612446429766,33.998710701861114]},"properties":{"uid":1681,"name":"玛曲县人民医院","province":"甘肃省","city":"甘南藏族自治州","area":"玛曲县","address":"甘南藏族自治州玛曲县忠干路33号","lng":102.076124,"lat":33.998711}},
{"type":"Feature","geometry":{"type":"Point","coordinates":[102.08132016756129,33.99807776670382]},"properties":{"uid":1682,"name":"玛曲县藏医医院","province":"甘肃省","city":"甘南藏族自治州","area":"玛曲县","address":"玛曲县团结东路10号","lng":102.08132,"lat":33.998078}},
{"type":"Feature","geometry":{"type":"Point","coordinates":[103.23172528338853,34.05461087506039]},"properties":{"uid":1683,"name":"迭部县人民医院","province":"甘肃省","city":"甘南藏族自治州","area":"迭部县","address":"甘南藏族自治州迭部县兴迭东街103号","lng":103.231725,"lat":34.054611}},
{"type":"Feature","geometry":{"type":"Point","coordinates":[103.21626054206865,34.05187813863521]},"properties":{"uid":1684,"name":"迭部县藏医院","province":"甘肃省","city":"甘南藏族自治州","area":"迭部县","address":"甘肃省甘南藏族自治州迭部县农贸市场路1号","lng":103.216261,"lat":34.051878}},
{"type":"Feature","geometry":{"type":"Point","coordinates":[103.40192023221698,34.008157909039966]},"properties":{"uid":1685,"name":"迭部林业和草原局职工医院","province":"甘肃省","city":"甘南藏族自治州","area":"迭部县","address":"313省道附近","lng":103.40192,"lat":34.008158}},
{"type":"Feature","geometry":{"type":"Point","coordinates":[104.36530380936514,33.78451031012198]},"properties":{"uid":1686,"name":"舟曲县人民医院","province":"甘肃省","city":"甘南藏族自治州","area":"舟曲县","address":"甘南藏族自治州舟曲县城关镇西三街西关49号","lng":104.365304,"lat":33.78451}},
{"type":"Feature","geometry":{"type":"Point","coordinates":[104.37525993835206,33.779431117250375]},"properties":{"uid":1687,"name":"舟曲博爱医院","province":"甘肃省","city":"甘南藏族自治州","area":"舟曲县","address":"春长北路与313省道交叉口东南150米","lng":104.37526,"lat":33.779431}},
{"type":"Feature","geometry":{"type":"Point","coordinates":[104.35958980866558,33.78128797095922]},"properties":{"uid":1688,"name":"舟林职工医院","province":"甘肃省","city":"甘南藏族自治州","area":"舟曲县","address":"甘肃省甘南藏族自治州舟曲县城关镇S313(旧)舟林医院","lng":104.35959,"lat":33.781288}},
{"type":"Feature","geometry":{"type":"Point","coordinates":[102.91630041651881,34.98546093269353]},"properties":{"uid":1689,"name":"甘南州人民医院","province":"甘肃省","city":"甘南藏族自治州","area":"合作市","address":"甘南藏族自治州合作市通钦街道人民东街50号","lng":102.9163,"lat":34.985461}},
{"type":"Feature","geometry":{"type":"Point","coordinates":[102.90597929406748,34.99960974942062]},"properties":{"uid":1690,"name":"甘南红十字仁爱医院","province":"甘肃省","city":"甘南藏族自治州","area":"合作市","address":"念钦街3号","lng":102.905979,"lat":34.99961}},
{"type":"Feature","geometry":{"type":"Point","coordinates":[102.90754550554396,34.986643477591]},"properties":{"uid":1691,"name":"甘南中西医结合医院","province":"甘肃省","city":"甘南藏族自治州","area":"合作市","address":"甘南藏族自治州合作市合作西路念钦街53号(景恒国际大酒店)","lng":102.907546,"lat":34.986643}},
{"type":"Feature","geometry":{"type":"Point","coordinates":[103.49598286607646,34.58617385519253]},"properties":{"uid":1692,"name":"卓尼县人民医院","province":"甘肃省","city":"甘南藏族自治州","area":"卓尼县","address":"甘南藏族自治州卓尼县柳林镇朱扎路","lng":103.495983,"lat":34.586174}},
{"type":"Feature","geometry":{"type":"Point","coordinates":[103.3553544628713,34.69523492246833]},"properties":{"uid":1693,"name":"临潭县第一人民医院","province":"甘肃省","city":"甘南藏族自治州","area":"临潭县","address":"甘南藏族自治州临潭县城关镇郊口村306省道","lng":103.355354,"lat":34.695235}},
{"type":"Feature","geometry":{"type":"Point","coordinates":[103.59234611731918,34.67293448342691]},"properties":{"uid":1694,"name":"临潭县第二人民医院","province":"甘肃省","city":"甘南藏族自治州","area":"临潭县","address":"甘南藏族自治州临潭县311省道新城镇北街","lng":103.592346,"lat":34.672934}},
{"type":"Feature","geometry":{"type":"Point","coordinates":[103.50976786813922,34.59150859514915]},"properties":{"uid":1695,"name":"卓尼县中医院","province":"甘肃省","city":"甘南藏族自治州","area":"卓尼县","address":"甘肃省甘南藏族自治州卓尼县城西社区","lng":103.509768,"lat":34.591509}},
{"type":"Feature","geometry":{"type":"Point","coordinates":[103.35422943009,34.68788805437796]},"properties":{"uid":1696,"name":"临潭县中医院","province":"甘肃省","city":"甘南藏族自治州","area":"临潭县","address":"甘南藏族自治州临潭县城关镇城内街58号","lng":103.354229,"lat":34.687888}},
{"type":"Feature","geometry":{"type":"Point","coordinates":[102.52727969378967,35.20585935921026]},"properties":{"uid":1697,"name":"夏河县人民医院","province":"甘肃省","city":"甘南藏族自治州","area":"夏河县","address":"甘南藏族自治州夏河县人民东街50号","lng":102.52728,"lat":35.205859}},
{"type":"Feature","geometry":{"type":"Point","coordinates":[102.52136593255761,35.19755343435425]},"properties":{"uid":1698,"name":"夏河县藏医医院","province":"甘肃省","city":"甘南藏族自治州","area":"夏河县","address":"人民西街120号","lng":102.521366,"lat":35.197553}},
{"type":"Feature","geometry":{"type":"Point","coordinates":[98.27248050809395,39.79258914453878]},"properties":{"uid":1699,"name":"嘉峪关市第一人民医院","province":"甘肃省","city":"嘉峪关市","area":"","address":"嘉峪关市雄关区新华中路26号","lng":98.272481,"lat":39.792589}},
{"type":"Feature","geometry":{"type":"Point","coordinates":[98.26357441298651,39.79774781862289]},"properties":{"uid":1700,"name":"酒钢医院","province":"甘肃省","city":"嘉峪关市","area":"","address":"嘉峪关市雄关区雄关西路18号","lng":98.263574,"lat":39.797748}},
{"type":"Feature","geometry":{"type":"Point","coordinates":[98.27245483402183,39.76622560512702]},"properties":{"uid":1701,"name":"中核四〇四医院","province":"甘肃省","city":"嘉峪关市","area":"","address":"甘肃省嘉峪关市玉泉南路和玉泉南路交叉口","lng":98.272455,"lat":39.766226}},
{"type":"Feature","geometry":{"type":"Point","coordinates":[98.25921571321594,39.76970903818712]},"properties":{"uid":1702,"name":"嘉峪关市第二人民医院","province":"甘肃省","city":"嘉峪关市","area":"","address":"嘉峪关市镜铁区西环南路与建设西路交叉处向南500米路","lng":98.259216,"lat":39.769709}},
{"type":"Feature","geometry":{"type":"Point","coordinates":[98.25898132780314,39.76960420165711]},"properties":{"uid":1703,"name":"嘉峪关市中医医院","province":"甘肃省","city":"嘉峪关市","area":"","address":"嘉峪关市镜铁区嘉文北路290号","lng":98.258981,"lat":39.769604}},
{"type":"Feature","geometry":{"type":"Point","coordinates":[98.27871040059672,39.77275528840941]},"properties":{"uid":1704,"name":"长城医院","province":"甘肃省","city":"嘉峪关市","area":"","address":"嘉峪关市迎宾西路12号","lng":98.27871,"lat":39.772755}},
{"type":"Feature","geometry":{"type":"Point","coordinates":[98.26401982839225,39.79661238147877]},"properties":{"uid":1705,"name":"酒钢医院-药房","province":"甘肃省","city":"嘉峪关市","area":"","address":"雄关西路18号","lng":98.26402,"lat":39.796612}},
{"type":"Feature","geometry":{"type":"Point","coordinates":[101.97446805043846,38.25066980245998]},"properties":{"uid":1706,"name":"永昌县人民医院","province":"甘肃省","city":"金昌市","area":"永昌县","address":"金昌市永昌县城关北大街22号","lng":101.974468,"lat":38.25067}},
{"type":"Feature","geometry":{"type":"Point","coordinates":[101.95296968962836,38.24958631449197]},"properties":{"uid":1707,"name":"永昌县中医院","province":"甘肃省","city":"金昌市","area":"永昌县","address":"金昌市永昌县312国道线以北","lng":101.95297,"lat":38.249586}},
{"type":"Feature","geometry":{"type":"Point","coordinates":[102.0770482318366,38.38209712254318]},"properties":{"uid":1708,"name":"金昌市第一人民医院","province":"甘肃省","city":"金昌市","area":"永昌县","address":"金昌市永昌县河西堡镇银河路与北京路交汇处六中对面","lng":102.077048,"lat":38.382097}},
{"type":"Feature","geometry":{"type":"Point","coordinates":[102.18990173045846,38.52563948125174]},"properties":{"uid":1709,"name":"金昌市中医院","province":"甘肃省","city":"金昌市","area":"金川区","address":"甘肃省金昌市金川区延安路106号","lng":102.189902,"lat":38.525639}},
{"type":"Feature","geometry":{"type":"Point","coordinates":[102.19538265409592,38.51881400961963]},"properties":{"uid":1710,"name":"金昌市中西医结合医院","province":"甘肃省","city":"金昌市","area":"金川区","address":"金昌市金川区杭州路58号","lng":102.195383,"lat":38.518814}},
{"type":"Feature","geometry":{"type":"Point","coordinates":[102.1740869361841,38.5284545942701]},"properties":{"uid":1711,"name":"金昌西京医院","province":"甘肃省","city":"金昌市","area":"金川区","address":"上海路恒昌国际商铺33-44号","lng":102.174087,"lat":38.528455}},
{"type":"Feature","geometry":{"type":"Point","coordinates":[98.50361102558712,39.743839359939074]},"properties":{"uid":1712,"name":"酒泉市人民医院","province":"甘肃省","city":"酒泉市","area":"肃州区","address":"酒泉市肃州区西大街22号","lng":98.503611,"lat":39.743839}},
{"type":"Feature","geometry":{"type":"Point","coordinates":[98.49554845683039,39.73717476714657]},"properties":{"uid":1713,"name":"酒泉市中医院(盘旋西路)","province":"甘肃省","city":"酒泉市","area":"肃州区","address":"酒泉市肃州区盘旋西路6号","lng":98.495548,"lat":39.737175}},
{"type":"Feature","geometry":{"type":"Point","coordinates":[98.51609610667704,39.75035543746768]},"properties":{"uid":1714,"name":"酒泉市第二人民医院","province":"甘肃省","city":"酒泉市","area":"肃州区","address":"酒泉市肃州区邮电街89号","lng":98.516096,"lat":39.750355}},
{"type":"Feature","geometry":{"type":"Point","coordinates":[98.49667446449642,39.753374788503905]},"properties":{"uid":1715,"name":"解放军第九四四医院","province":"甘肃省","city":"酒泉市","area":"肃州区","address":"酒泉市肃州区雄关路22号","lng":98.496674,"lat":39.753375}},
{"type":"Feature","geometry":{"type":"Point","coordinates":[98.51113594868316,39.74761390388951]},"properties":{"uid":1716,"name":"酒泉市中医院(北大街)","province":"甘肃省","city":"酒泉市","area":"肃州区","address":"北大街43号","lng":98.511136,"lat":39.747614}},
{"type":"Feature","geometry":{"type":"Point","coordinates":[98.51336939848711,39.73381158685339]},"properties":{"uid":1717,"name":"博爱医院(南苑路)","province":"甘肃省","city":"酒泉市","area":"肃州区","address":"南苑小区12号","lng":98.513369,"lat":39.733812}},
{"type":"Feature","geometry":{"type":"Point","coordinates":[98.52815815957507,39.74356729726303]},"properties":{"uid":1718,"name":"酒泉同济医院","province":"甘肃省","city":"酒泉市","area":"肃州区","address":"酒泉市肃州区东大街公园路27号","lng":98.528158,"lat":39.743567}},
{"type":"Feature","geometry":{"type":"Point","coordinates":[98.51147285473841,39.75147658007694]},"properties":{"uid":1719,"name":"酒泉惠民医院","province":"甘肃省","city":"酒泉市","area":"肃州区","address":"酒泉市肃州区北大街101号","lng":98.511473,"lat":39.751477}},
{"type":"Feature","geometry":{"type":"Point","coordinates":[98.51823540234422,39.73487052432813]},"properties":{"uid":1720,"name":"酒泉仁和医院","province":"甘肃省","city":"酒泉市","area":"肃州区","address":"酒泉市肃州区祁连路1号","lng":98.518235,"lat":39.734871}},
{"type":"Feature","geometry":{"type":"Point","coordinates":[98.48884668590453,39.74288248719134]},"properties":{"uid":1721,"name":"酒泉华西医院","province":"甘肃省","city":"酒泉市","area":"肃州区","address":"甘肃省酒泉市肃州区G312(飞天路)光明小区22号楼","lng":98.488847,"lat":39.742882}},
{"type":"Feature","geometry":{"type":"Point","coordinates":[98.52055243462837,39.7441293543093]},"properties":{"uid":1722,"name":"酒泉市医院东街医院","province":"甘肃省","city":"酒泉市","area":"肃州区","address":"东北街街道公园路1号","lng":98.520552,"lat":39.744129}},
{"type":"Feature","geometry":{"type":"Point","coordinates":[98.52310346621297,39.7321705191268]},"properties":{"uid":1723,"name":"甘肃省酒泉电机厂-医院","province":"甘肃省","city":"酒泉市","area":"肃州区","address":"祁连路东50米","lng":98.523103,"lat":39.732171}},
{"type":"Feature","geometry":{"type":"Point","coordinates":[98.90549829812596,39.98442036466091]},"properties":{"uid":1724,"name":"金塔县人民医院","province":"甘肃省","city":"酒泉市","area":"金塔县","address":"酒泉市金塔县解放路385号","lng":98.905498,"lat":39.98442}},
{"type":"Feature","geometry":{"type":"Point","coordinates":[98.8913805991879,39.97313786180779]},"properties":{"uid":1725,"name":"金塔县中医院","province":"甘肃省","city":"酒泉市","area":"金塔县","address":"园林街","lng":98.891381,"lat":39.973138}},
{"type":"Feature","geometry":{"type":"Point","coordinates":[102.81928004313214,36.604991823771755]},"properties":{"uid":1726,"name":"西铁医院","province":"甘肃省","city":"兰州市","area":"永登县","address":"甘肃省兰州市永登县连城镇西铁医院(西铁中学西150米)","lng":102.81928,"lat":36.604992}},
{"type":"Feature","geometry":{"type":"Point","coordinates":[102.87325963683763,36.436389526658516]},"properties":{"uid":1727,"name":"窑街煤电集团总医院","province":"甘肃省","city":"兰州市","area":"红古区","address":"和平街44号","lng":102.87326,"lat":36.43639}},
{"type":"Feature","geometry":{"type":"Point","coordinates":[102.8556293151989,36.485739250318176]},"properties":{"uid":1728,"name":"兰州连铝医院","province":"甘肃省","city":"兰州市","area":"永登县","address":"甘肃省兰州市永登县河桥镇连铝医院(连铝家园附近)","lng":102.855629,"lat":36.485739}},
{"type":"Feature","geometry":{"type":"Point","coordinates":[102.87225974560424,36.461349930426536]},"properties":{"uid":1729,"name":"兰红医院","province":"甘肃省","city":"兰州市","area":"红古区","address":"兰州市红古区窑街街道红山村","lng":102.87226,"lat":36.46135}},
{"type":"Feature","geometry":{"type":"Point","coordinates":[102.81711946889206,36.60432065210776]},"properties":{"uid":1730,"name":"永登百草堂医院","province":"甘肃省","city":"兰州市","area":"永登县","address":"兰州市永登县(西铁医院西南侧约100米)","lng":102.817119,"lat":36.604321}},
{"type":"Feature","geometry":{"type":"Point","coordinates":[102.9374701772905,36.75186992656627]},"properties":{"uid":1731,"name":"益民医院","province":"甘肃省","city":"兰州市","area":"永登县","address":"十字路附近","lng":102.93747,"lat":36.75187}},
{"type":"Feature","geometry":{"type":"Point","coordinates":[102.87757925635742,36.43161054158771]},"properties":{"uid":1732,"name":"兰州白求恩医院","province":"甘肃省","city":"兰州市","area":"红古区","address":"窑街镇后街75号","lng":102.877579,"lat":36.431611}},
{"type":"Feature","geometry":{"type":"Point","coordinates":[103.2634047080122,36.73094798872925]},"properties":{"uid":1733,"name":"永登县人民医院","province":"甘肃省","city":"兰州市","area":"永登县","address":"兰州市永登县城关镇胜利街1641号","lng":103.263405,"lat":36.730948}},
{"type":"Feature","geometry":{"type":"Point","coordinates":[103.49272067192511,36.14605948019696]},"properties":{"uid":1734,"name":"五0四医院","province":"甘肃省","city":"兰州市","area":"西固区","address":"甘肃省兰州市西固区新安路75号","lng":103.492721,"lat":36.146059}},
{"type":"Feature","geometry":{"type":"Point","coordinates":[103.2587749191497,36.73492961485026]},"properties":{"uid":1735,"name":"永登县中医医院","province":"甘肃省","city":"兰州市","area":"永登县","address":"甘肃省兰州市永登县人民街340号","lng":103.258775,"lat":36.73493}},
{"type":"Feature","geometry":{"type":"Point","coordinates":[103.26614403871322,36.728258610636985]},"properties":{"uid":1736,"name":"盛安医院","province":"甘肃省","city":"兰州市","area":"永登县","address":"兰州市永登县清真肉联厂2单元301室","lng":103.266144,"lat":36.728259}},
{"type":"Feature","geometry":{"type":"Point","coordinates":[103.2577969189373,36.737108773224016]},"properties":{"uid":1737,"name":"三元堂医院","province":"甘肃省","city":"兰州市","area":"永登县","address":"民乐街226","lng":103.257797,"lat":36.737109}},
{"type":"Feature","geometry":{"type":"Point","coordinates":[103.27238019891233,36.72054200639078]},"properties":{"uid":1738,"name":"永登康惠医院","province":"甘肃省","city":"兰州市","area":"永登县","address":"青龙路499附近","lng":103.27238,"lat":36.720542}},
{"type":"Feature","geometry":{"type":"Point","coordinates":[103.4336697291715,36.263810734492544]},"properties":{"uid":1739,"name":"惠健堂医院","province":"甘肃省","city":"兰州市","area":"永登县","address":"甘肃省兰州市永登县苦水镇312国道永登建磊商贸有限公司","lng":103.43367,"lat":36.263811}},
{"type":"Feature","geometry":{"type":"Point","coordinates":[103.25620087317161,36.727557538074905]},"properties":{"uid":1740,"name":"永登应兴堂中西医结合医院","province":"甘肃省","city":"兰州市","area":"永登县","address":"滨河大道1384","lng":103.256201,"lat":36.727558}},
{"type":"Feature","geometry":{"type":"Point","coordinates":[103.27235019577486,36.72043933776077]},"properties":{"uid":1741,"name":"鑫一堂医院","province":"甘肃省","city":"兰州市","area":"永登县","address":"甘肃省兰州市永登县G312(青龙路)","lng":103.27235,"lat":36.720439}},
{"type":"Feature","geometry":{"type":"Point","coordinates":[103.46159986502093,36.167338305576806]},"properties":{"uid":1742,"name":"兰维医院","province":"甘肃省","city":"兰州市","area":"西固区","address":"新维路46号","lng":103.4616,"lat":36.167338}},
{"type":"Feature","geometry":{"type":"Point","coordinates":[103.81252946071206,36.061202843204505]},"properties":{"uid":1743,"name":"兰州大学第二医院","province":"甘肃省","city":"兰州市","area":"城关区","address":"兰州市城关区萃英门82号","lng":103.812529,"lat":36.061203}},
{"type":"Feature","geometry":{"type":"Point","coordinates":[103.73395999571999,36.102633461836476]},"properties":{"uid":1744,"name":"第940医院(安宁分院)","province":"甘肃省","city":"兰州市","area":"安宁区","address":"甘肃省兰州市安宁区安宁东路818号","lng":103.73396,"lat":36.102633}},
{"type":"Feature","geometry":{"type":"Point","coordinates":[103.86697636903962,36.04860662205959]},"properties":{"uid":1745,"name":"甘肃省人民医院","province":"甘肃省","city":"兰州市","area":"城关区","address":"兰州市城关区东岗西路204号","lng":103.866976,"lat":36.048607}},
{"type":"Feature","geometry":{"type":"Point","coordinates":[103.86937386982247,36.0457094582748]},"properties":{"uid":1746,"name":"兰州大学第一医院","province":"甘肃省","city":"兰州市","area":"城关区","address":"兰州市城关区东岗西路1号","lng":103.869374,"lat":36.045709}},
{"type":"Feature","geometry":{"type":"Point","coordinates":[103.77162494295371,36.075733741094304]},"properties":{"uid":1747,"name":"兰州市第一人民医院","province":"甘肃省","city":"兰州市","area":"七里河区","address":"兰州市七里河区吴家园西街1号","lng":103.771625,"lat":36.075734}},
{"type":"Feature","geometry":{"type":"Point","coordinates":[103.8375291903867,36.04086697461986]},"properties":{"uid":1748,"name":"甘肃省第二人民医院","province":"甘肃省","city":"兰州市","area":"城关区","address":"兰州市城关区和政西街1号","lng":103.837529,"lat":36.040867}},
{"type":"Feature","geometry":{"type":"Point","coordinates":[103.74306076282912,36.04768990090523]},"properties":{"uid":1749,"name":"武警甘肃总队医院","province":"甘肃省","city":"兰州市","area":"七里河区","address":"兰州市七里河区龚湖公路建兰新村251号","lng":103.743061,"lat":36.04769}},
{"type":"Feature","geometry":{"type":"Point","coordinates":[103.81986986202402,36.05565529468369]},"properties":{"uid":1750,"name":"兰州中西医结合医院","province":"甘肃省","city":"兰州市","area":"城关区","address":"甘肃省兰州市城关区永昌路169号","lng":103.81987,"lat":36.055655}},
{"type":"Feature","geometry":{"type":"Point","coordinates":[103.77832714145507,36.07267043856586]},"properties":{"uid":1751,"name":"甘肃省中医院","province":"甘肃省","city":"兰州市","area":"七里河区","address":"兰州市七里河区瓜州路418号","lng":103.778327,"lat":36.07267}},
{"type":"Feature","geometry":{"type":"Point","coordinates":[103.78752921837808,36.068779613745285]},"properties":{"uid":1752,"name":"解放军联勤保障部队第940医院","province":"甘肃省","city":"兰州市","area":"七里河区","address":"甘肃省兰州市七里河区南滨河路333号","lng":103.787529,"lat":36.06878}},
{"type":"Feature","geometry":{"type":"Point","coordinates":[103.82236982370495,36.06765069710199]},"properties":{"uid":1753,"name":"兰州市第二人民医院","province":"甘肃省","city":"兰州市","area":"城关区","address":"兰州市城关区靖远路388号","lng":103.82237,"lat":36.067651}},
{"type":"Feature","geometry":{"type":"Point","coordinates":[103.96195814670247,36.0034855258355]},"properties":{"uid":1754,"name":"榆中县第三人民医院","province":"甘肃省","city":"兰州市","area":"榆中县","address":"榆中县和平镇薇乐大道199号","lng":103.961958,"lat":36.003486}},
{"type":"Feature","geometry":{"type":"Point","coordinates":[103.88591058717704,36.046078276422385]},"properties":{"uid":1755,"name":"甘肃省第三人民医院","province":"甘肃省","city":"兰州市","area":"城关区","address":"兰州市城关区段家滩路763号","lng":103.885911,"lat":36.046078}},
{"type":"Feature","geometry":{"type":"Point","coordinates":[103.76663967429914,36.065739201118745]},"properties":{"uid":1756,"name":"兰州市中医医院","province":"甘肃省","city":"兰州市","area":"七里河区","address":"兰州市七里河区武威路344号","lng":103.76664,"lat":36.065739}},
{"type":"Feature","geometry":{"type":"Point","coordinates":[103.87172082497396,36.04072217522002]},"properties":{"uid":1757,"name":"甘肃中医药大学附属医院","province":"甘肃省","city":"兰州市","area":"城关区","address":"兰州市城关区嘉峪关西路732号","lng":103.871721,"lat":36.040722}},
{"type":"Feature","geometry":{"type":"Point","coordinates":[103.83092564048833,36.04810852893673]},"properties":{"uid":1758,"name":"兰州三爱堂医院(中国人民解放军第一医院)","province":"甘肃省","city":"兰州市","area":"城关区","address":"甘肃省兰州市城关区静宁南路72号","lng":103.830926,"lat":36.048109}},
{"type":"Feature","geometry":{"type":"Point","coordinates":[103.61329533501713,36.09554368039067]},"properties":{"uid":1759,"name":"甘肃宝石花医院","province":"甘肃省","city":"兰州市","area":"西固区","address":"甘肃省兰州市西固区福利路733号","lng":103.613295,"lat":36.095544}},
{"type":"Feature","geometry":{"type":"Point","coordinates":[103.73933882486013,36.04569854839842]},"properties":{"uid":1760,"name":"兰州市第三人民医院","province":"甘肃省","city":"兰州市","area":"七里河区","address":"兰州市七里河区建兰新村130号","lng":103.739339,"lat":36.045699}},
{"type":"Feature","geometry":{"type":"Point","coordinates":[103.71198600895728,36.105200872821904]},"properties":{"uid":1761,"name":"兰飞医院","province":"甘肃省","city":"兰州市","area":"安宁区","address":"安宁西路632号","lng":103.711986,"lat":36.105201}},
{"type":"Feature","geometry":{"type":"Point","coordinates":[103.89475406635268,36.03725428052407]},"properties":{"uid":1762,"name":"兰空机关医院","province":"甘肃省","city":"兰州市","area":"城关区","address":"甘肃省兰州市城关区焦家湾375号","lng":103.894754,"lat":36.037254}},
{"type":"Feature","geometry":{"type":"Point","coordinates":[103.87897565428842,36.05108914033149]},"properties":{"uid":1763,"name":"锦华医院","province":"甘肃省","city":"兰州市","area":"城关区","address":"城关区南河路1528号","lng":103.878976,"lat":36.051089}},
{"type":"Feature","geometry":{"type":"Point","coordinates":[103.82871559775147,36.04138478237132]},"properties":{"uid":1764,"name":"兰州仁和医院","province":"甘肃省","city":"兰州市","area":"城关区","address":"兰州市城关区金昌南路3号","lng":103.828716,"lat":36.041385}},
{"type":"Feature","geometry":{"type":"Point","coordinates":[103.74248373997018,36.07960196615639]},"properties":{"uid":1765,"name":"兰州金港城医院","province":"甘肃省","city":"兰州市","area":"七里河区","address":"甘肃省兰州市七里河区河湾堡东街68号","lng":103.742484,"lat":36.079602}},
{"type":"Feature","geometry":{"type":"Point","coordinates":[103.83858050922912,36.08079753717019]},"properties":{"uid":1766,"name":"甘肃省康泰医院","province":"甘肃省","city":"兰州市","area":"城关区","address":"城关区大沙坪556号","lng":103.838581,"lat":36.080798}},
{"type":"Feature","geometry":{"type":"Point","coordinates":[103.85524498491729,36.040893866296955]},"properties":{"uid":1767,"name":"兰州友好医院","province":"甘肃省","city":"兰州市","area":"城关区","address":"兰州市城关区定西南路406号","lng":103.855245,"lat":36.040894}},
{"type":"Feature","geometry":{"type":"Point","coordinates":[103.94895789861127,36.32837716162745]},"properties":{"uid":1768,"name":"皋兰县人民医院","province":"甘肃省","city":"兰州市","area":"皋兰县","address":"北辰路50号","lng":103.948958,"lat":36.328377}},
{"type":"Feature","geometry":{"type":"Point","coordinates":[103.77528148713608,36.07076114972434]},"properties":{"uid":1769,"name":"兰石医院","province":"甘肃省","city":"兰州市","area":"七里河区","address":"瓜州路317号","lng":103.775281,"lat":36.070761}},
{"type":"Feature","geometry":{"type":"Point","coordinates":[103.8470530670806,36.052594037869824]},"properties":{"uid":1770,"name":"兰州华夏医院","province":"甘肃省","city":"兰州市","area":"城关区","address":"东岗西路702号(原兰州华夏医院妇科中心)","lng":103.847053,"lat":36.052594}},
{"type":"Feature","geometry":{"type":"Point","coordinates":[103.72389436273392,36.111097725481855]},"properties":{"uid":1771,"name":"兰州交通大学医院","province":"甘肃省","city":"兰州市","area":"安宁区","address":"甘肃省兰州市安宁区学府路","lng":103.723894,"lat":36.111098}},
{"type":"Feature","geometry":{"type":"Point","coordinates":[103.87408593800322,36.071814619717436]},"properties":{"uid":1772,"name":"核工业七九二医院","province":"甘肃省","city":"兰州市","area":"城关区","address":"甘肃省兰州市城关区雁滩路新港城十字路口西南方向48米","lng":103.874086,"lat":36.071815}},
{"type":"Feature","geometry":{"type":"Point","coordinates":[103.96015538279343,36.30834454206808]},"properties":{"uid":1773,"name":"皋兰县中医医院","province":"甘肃省","city":"兰州市","area":"皋兰县","address":"兰州市皋兰县石洞镇梨花路51号","lng":103.960155,"lat":36.308345}},
{"type":"Feature","geometry":{"type":"Point","coordinates":[103.7882964191781,36.05691412474803]},"properties":{"uid":1774,"name":"兰州同仁中医院","province":"甘肃省","city":"兰州市","area":"七里河区","address":"甘肃省兰州市七里河区上西园287号","lng":103.788296,"lat":36.056914}},
{"type":"Feature","geometry":{"type":"Point","coordinates":[103.62451774680764,36.090073462042504]},"properties":{"uid":1775,"name":"甘肃中医药大学附属医院(西固分院)","province":"甘肃省","city":"兰州市","area":"西固区","address":"兰州市西固区山丹街1063号","lng":103.624518,"lat":36.090073}},
{"type":"Feature","geometry":{"type":"Point","coordinates":[103.8920724424195,36.04010351960698]},"properties":{"uid":1776,"name":"兰州锦怡中医医院","province":"甘肃省","city":"兰州市","area":"城关区","address":"拱星墩1534号","lng":103.892072,"lat":36.040104}},
{"type":"Feature","geometry":{"type":"Point","coordinates":[103.85964853696152,36.04220523195299]},"properties":{"uid":1777,"name":"甘肃省长城建工医院","province":"甘肃省","city":"兰州市","area":"城关区","address":"城关区定西路348号","lng":103.859649,"lat":36.042205}},
{"type":"Feature","geometry":{"type":"Point","coordinates":[103.87888735086511,36.06070365085874]},"properties":{"uid":1778,"name":"慈和堂医院","province":"甘肃省","city":"兰州市","area":"城关区","address":"甘肃省兰州市城关区雁滩路3126号附近","lng":103.878887,"lat":36.060704}},
{"type":"Feature","geometry":{"type":"Point","coordinates":[103.67242834719404,36.46093336731318]},"properties":{"uid":1779,"name":"辅仁医院","province":"甘肃省","city":"兰州市","area":"永登县","address":"兰州市通天河街与经十路交叉口","lng":103.672428,"lat":36.460933}},
{"type":"Feature","geometry":{"type":"Point","coordinates":[103.70276884997682,36.10733923425042]},"properties":{"uid":1780,"name":"长风医院","province":"甘肃省","city":"兰州市","area":"安宁区","address":"安宁区安宁西路770号","lng":103.702769,"lat":36.107339}},
{"type":"Feature","geometry":{"type":"Point","coordinates":[103.63774630931277,36.104391256432216]},"properties":{"uid":1781,"name":"石化总医院(厂前分院)","province":"甘肃省","city":"兰州市","area":"西固区","address":"福利东路161号","lng":103.637746,"lat":36.104391}},
{"type":"Feature","geometry":{"type":"Point","coordinates":[103.89585981847225,36.05614502745678]},"properties":{"uid":1782,"name":"慈和堂医院","province":"甘肃省","city":"兰州市","area":"城关区","address":"雁滩路59号","lng":103.89586,"lat":36.056145}},
{"type":"Feature","geometry":{"type":"Point","coordinates":[103.74953254532605,36.09787173036852]},"properties":{"uid":1783,"name":"兰州百合医院","province":"甘肃省","city":"兰州市","area":"安宁区","address":"甘肃省兰州市安宁区安宁东路300号","lng":103.749533,"lat":36.097872}},
{"type":"Feature","geometry":{"type":"Point","coordinates":[103.86630978686645,36.07342542997554]},"properties":{"uid":1784,"name":"兰州脑康中医医院","province":"甘肃省","city":"兰州市","area":"城关区","address":"兰州市城关区雁北路2726-1","lng":103.86631,"lat":36.073425}},
{"type":"Feature","geometry":{"type":"Point","coordinates":[103.81827002023633,36.049695489997305]},"properties":{"uid":1785,"name":"兰州市公安医院(泰达商务酒店东南)","province":"甘肃省","city":"兰州市","area":"城关区","address":"第一新村1号","lng":103.81827,"lat":36.049695}},
{"type":"Feature","geometry":{"type":"Point","coordinates":[103.81032446857172,36.05080831649893]},"properties":{"uid":1786,"name":"兰州红十字康乐医院","province":"甘肃省","city":"兰州市","area":"城关区","address":"伏龙坪中街228号","lng":103.810324,"lat":36.050808}},
{"type":"Feature","geometry":{"type":"Point","coordinates":[103.81545324310979,36.05905893851903]},"properties":{"uid":1787,"name":"兰州中研白癜风医院","province":"甘肃省","city":"兰州市","area":"城关区","address":"兰州市城关区临夏路35号","lng":103.815453,"lat":36.059059}},
{"type":"Feature","geometry":{"type":"Point","coordinates":[103.86080938625294,36.0449494899056]},"properties":{"uid":1788,"name":"兰州大学-校医院","province":"甘肃省","city":"兰州市","area":"城关区","address":"天水南路222号兰州大学内","lng":103.860809,"lat":36.044949}},
{"type":"Feature","geometry":{"type":"Point","coordinates":[103.81208142123083,36.087432322040534]},"properties":{"uid":1789,"name":"甘肃省水电工程局医院","province":"甘肃省","city":"兰州市","area":"城关区","address":"九州大道182号","lng":103.812081,"lat":36.087432}},
{"type":"Feature","geometry":{"type":"Point","coordinates":[103.77037768734013,36.076936206323126]},"properties":{"uid":1790,"name":"市一医院家属院-西门人行门","province":"甘肃省","city":"兰州市","area":"七里河区","address":"甘肃省兰州市七里河区兰州国资物业第一佳园(火星街南)","lng":103.770378,"lat":36.076936}},
{"type":"Feature","geometry":{"type":"Point","coordinates":[103.03447895538746,35.47951028237485]},"properties":{"uid":1791,"name":"临夏县人民医院","province":"甘肃省","city":"临夏回族自治州","area":"临夏县","address":"临夏回族自治州临夏县滨河路","lng":103.034479,"lat":35.47951}},
{"type":"Feature","geometry":{"type":"Point","coordinates":[103.18451589880857,35.582486541961536]},"properties":{"uid":1792,"name":"临夏回族自治州中医院","province":"甘肃省","city":"临夏回族自治州","area":"临夏市","address":"临夏回族自治州临夏市城郊镇堡子村188号","lng":103.184516,"lat":35.582487}},
{"type":"Feature","geometry":{"type":"Point","coordinates":[102.8849963175841,35.71125554078153]},"properties":{"uid":1793,"name":"积石山县人民医院","province":"甘肃省","city":"临夏回族自治州","area":"积石山保安族东乡族撒拉族自治县","address":"临夏回族自治州积石山保安族东乡吹麻滩镇滨河东路1号","lng":102.884996,"lat":35.711256}},
{"type":"Feature","geometry":{"type":"Point","coordinates":[103.1719129226291,35.576194882577916]},"properties":{"uid":1794,"name":"临夏解放军第七医院","province":"甘肃省","city":"临夏回族自治州","area":"临夏市","address":"临夏回族自治州临夏市马彦庄村379-1号","lng":103.171913,"lat":35.576195}},
{"type":"Feature","geometry":{"type":"Point","coordinates":[102.88188933786297,35.70972081177607]},"properties":{"uid":1795,"name":"积石山县民族医院","province":"甘肃省","city":"临夏回族自治州","area":"积石山保安族东乡族撒拉族自治县","address":"临夏回族自治州积石山保安族东乡族撒拉族自治县吹嘛滩镇农贸路10号","lng":102.881889,"lat":35.709721}},
{"type":"Feature","geometry":{"type":"Point","coordinates":[103.18627609780181,35.657577431403936]},"properties":{"uid":1796,"name":"临夏县中医医院","province":"甘肃省","city":"临夏回族自治州","area":"临夏县","address":"临夏回族自治州临夏县土桥镇西街36号","lng":103.186276,"lat":35.657577}},
{"type":"Feature","geometry":{"type":"Point","coordinates":[103.1914468579044,35.58792940386761]},"properties":{"uid":1797,"name":"临夏华康医院","province":"甘肃省","city":"临夏回族自治州","area":"临夏市","address":"甘肃省临夏回族自治州临夏市G213(兰郎路)","lng":103.191447,"lat":35.587929}},
{"type":"Feature","geometry":{"type":"Point","coordinates":[103.05042944119174,35.484607633791185]},"properties":{"uid":1798,"name":"民族医院","province":"甘肃省","city":"临夏回族自治州","area":"临夏县","address":"临夏回族自治州临夏县213国道东50米","lng":103.050429,"lat":35.484608}},
{"type":"Feature","geometry":{"type":"Point","coordinates":[102.88122986844643,35.71270084876119]},"properties":{"uid":1799,"name":"积石山仁爱医院","province":"甘肃省","city":"临夏回族自治州","area":"积石山保安族东乡族撒拉族自治县","address":"银川路附近","lng":102.88123,"lat":35.712701}},
{"type":"Feature","geometry":{"type":"Point","coordinates":[102.99239643791977,35.49264803642789]},"properties":{"uid":1800,"name":"康泰医院","province":"甘肃省","city":"临夏回族自治州","area":"临夏县","address":"临夏县17附近","lng":102.992396,"lat":35.492648}},
{"type":"Feature","geometry":{"type":"Point","coordinates":[103.2140931634441,35.59399432036139]},"properties":{"uid":1801,"name":"临夏市人民医院","province":"甘肃省","city":"临夏回族自治州","area":"临夏市","address":"临夏回族自治州临夏市解放路146号","lng":103.214093,"lat":35.593994}},
{"type":"Feature","geometry":{"type":"Point","coordinates":[103.24801241426613,35.59969292429018]},"properties":{"uid":1802,"name":"临夏州人民医院","province":"甘肃省","city":"临夏回族自治州","area":"临夏市","address":"临夏回族自治州临夏市南滨河东路110号","lng":103.248012,"lat":35.599693}},
{"type":"Feature","geometry":{"type":"Point","coordinates":[103.38668955449744,35.66206674079515]},"properties":{"uid":1803,"name":"东乡族自治县人民医院","province":"甘肃省","city":"临夏回族自治州","area":"东乡族自治县","address":"临夏回族自治州东乡族自治县锁南镇东西大街82号","lng":103.38669,"lat":35.662067}},
{"type":"Feature","geometry":{"type":"Point","coordinates":[103.36176797925913,35.42504000991457]},"properties":{"uid":1804,"name":"和政县人民医院","province":"甘肃省","city":"临夏回族自治州","area":"和政县","address":"临夏回族自治州和政县和合路","lng":103.361768,"lat":35.42504}},
{"type":"Feature","geometry":{"type":"Point","coordinates":[103.28065960080178,35.95340421879164]},"properties":{"uid":1805,"name":"永靖县人民医院","province":"甘肃省","city":"临夏回族自治州","area":"永靖县","address":"临夏回族自治州永靖县太极南路","lng":103.28066,"lat":35.953404}},
{"type":"Feature","geometry":{"type":"Point","coordinates":[103.57818801687968,35.48965024863987]},"properties":{"uid":1806,"name":"广河县人民医院","province":"甘肃省","city":"临夏回族自治州","area":"广河县","address":"临夏回族自治州广河县广通大道","lng":103.578188,"lat":35.48965}},
{"type":"Feature","geometry":{"type":"Point","coordinates":[103.21620778022734,35.60770871376152]},"properties":{"uid":1807,"name":"临夏宝康中医医院","province":"甘肃省","city":"临夏回族自治州","area":"临夏市","address":"甘肃省临夏回族自治州临夏市军民街99","lng":103.216208,"lat":35.607709}},
{"type":"Feature","geometry":{"type":"Point","coordinates":[103.20032099252181,35.5993500040547]},"properties":{"uid":1808,"name":"甘光医院","province":"甘肃省","city":"临夏回族自治州","area":"临夏市","address":"临夏市民主东路344号","lng":103.200321,"lat":35.59935}},
{"type":"Feature","geometry":{"type":"Point","coordinates":[103.22244608764312,35.60656221324624]},"properties":{"uid":1809,"name":"临夏市和谐医院","province":"甘肃省","city":"临夏回族自治州","area":"临夏市","address":"临夏市刘临路中段","lng":103.222446,"lat":35.606562}},
{"type":"Feature","geometry":{"type":"Point","coordinates":[103.21547662920123,35.590077943382475]},"properties":{"uid":1810,"name":"临夏市民族医院","province":"甘肃省","city":"临夏回族自治州","area":"临夏市","address":"临夏回族自治州临夏市东关街道环城东路4号","lng":103.215477,"lat":35.590078}},
{"type":"Feature","geometry":{"type":"Point","coordinates":[103.31869461982178,35.93978692502352]},"properties":{"uid":1811,"name":"水电四局刘家峡医院","province":"甘肃省","city":"临夏回族自治州","area":"永靖县","address":"临夏回族自治州永靖县刘家峡镇川西路51号","lng":103.318695,"lat":35.939787}},
{"type":"Feature","geometry":{"type":"Point","coordinates":[103.58101511123724,35.48250119250905]},"properties":{"uid":1812,"name":"广河县盛和中医院","province":"甘肃省","city":"临夏回族自治州","area":"广河县","address":"团结路与漳河东路交叉口东北150米","lng":103.581015,"lat":35.482501}},
{"type":"Feature","geometry":{"type":"Point","coordinates":[103.21705747236653,35.60432103192289]},"properties":{"uid":1813,"name":"临夏惠民医院","province":"甘肃省","city":"临夏回族自治州","area":"临夏市","address":"甘肃省临夏回族自治州临夏市环城东路19","lng":103.217057,"lat":35.604321}},
{"type":"Feature","geometry":{"type":"Point","coordinates":[103.57917765553502,35.3464585144738]},"properties":{"uid":1814,"name":"康乐康宁中西医结合医院","province":"甘肃省","city":"临夏回族自治州","area":"康乐县","address":"临夏回族自治州康乐县苏集镇西街68号","lng":103.579178,"lat":35.346459}},
{"type":"Feature","geometry":{"type":"Point","coordinates":[103.56195043213152,35.485483059093845]},"properties":{"uid":1815,"name":"广河县中医医院","province":"甘肃省","city":"临夏回族自治州","area":"广河县","address":"甘肃省临夏回族自治州广河县X370","lng":103.56195,"lat":35.485483}},
{"type":"Feature","geometry":{"type":"Point","coordinates":[103.31412389874473,35.94205393817745]},"properties":{"uid":1816,"name":"甘肃康盛惠民医院","province":"甘肃省","city":"临夏回族自治州","area":"永靖县","address":"临夏回族自治州永靖县刘家峡镇黄河路29号","lng":103.314124,"lat":35.942054}},
{"type":"Feature","geometry":{"type":"Point","coordinates":[103.34348251109955,35.4119550392748]},"properties":{"uid":1817,"name":"和政县中医医院","province":"甘肃省","city":"临夏回族自治州","area":"和政县","address":"甘肃省临夏回族自治州和政县和合路","lng":103.343483,"lat":35.411955}},
{"type":"Feature","geometry":{"type":"Point","coordinates":[103.2041703615057,35.59888982706368]},"properties":{"uid":1818,"name":"临夏华山医院","province":"甘肃省","city":"临夏回族自治州","area":"临夏市","address":"甘肃省临夏回族自治州临夏市华山医院(临夏商贸城东南150米)","lng":103.20417,"lat":35.59889}},
{"type":"Feature","geometry":{"type":"Point","coordinates":[103.19685427408946,35.59568876655119]},"properties":{"uid":1819,"name":"中山医院","province":"甘肃省","city":"临夏回族自治州","area":"临夏市","address":"临夏回族自治州临夏市临洮拱北1号","lng":103.196854,"lat":35.595689}},
{"type":"Feature","geometry":{"type":"Point","coordinates":[103.35555367483845,35.437292620211956]},"properties":{"uid":1820,"name":"普济医院","province":"甘肃省","city":"临夏回族自治州","area":"和政县","address":"甘肃省临夏回族自治州和政县迎宾路昊瑞商住楼","lng":103.355554,"lat":35.437293}},
{"type":"Feature","geometry":{"type":"Point","coordinates":[103.71847716470597,35.368553447526004]},"properties":{"uid":1821,"name":"康乐县人民医院","province":"甘肃省","city":"临夏回族自治州","area":"康乐县","address":"临夏回族自治州康乐县附城镇胭脂路","lng":103.718477,"lat":35.368553}},
{"type":"Feature","geometry":{"type":"Point","coordinates":[103.70944810184037,35.37078710103794]},"properties":{"uid":1822,"name":"康乐县中医院","province":"甘肃省","city":"临夏回族自治州","area":"康乐县","address":"临夏回族自治州康乐县附城镇新治街8号","lng":103.709448,"lat":35.370787}},
{"type":"Feature","geometry":{"type":"Point","coordinates":[103.75154726049037,35.560416524119915]},"properties":{"uid":1823,"name":"广河县中西医医院","province":"甘肃省","city":"临夏回族自治州","area":"广河县","address":"临夏回族自治州广河县沙家村2号","lng":103.751547,"lat":35.560417}},
{"type":"Feature","geometry":{"type":"Point","coordinates":[104.68172150653375,32.94184313354965]},"properties":{"uid":1824,"name":"文县第一人民医院","province":"甘肃省","city":"陇南市","area":"文县","address":"陇南市文县城关镇县城南街1号","lng":104.681722,"lat":32.941843}},
{"type":"Feature","geometry":{"type":"Point","coordinates":[104.69287341685865,32.934815349199184]},"properties":{"uid":1825,"name":"文县中医院","province":"甘肃省","city":"陇南市","area":"文县","address":"陇南市文县城关镇文津中街韩家坝小区","lng":104.692873,"lat":32.934815}},
{"type":"Feature","geometry":{"type":"Point","coordinates":[104.6718704028292,32.953100460085054]},"properties":{"uid":1826,"name":"文县仁康医院","province":"甘肃省","city":"陇南市","area":"文县","address":"212国道东50米","lng":104.67187,"lat":32.9531}},
{"type":"Feature","geometry":{"type":"Point","coordinates":[104.3997756838456,34.03992125738438]},"properties":{"uid":1827,"name":"宕昌县中医院","province":"甘肃省","city":"陇南市","area":"宕昌县","address":"陇南市宕昌县长征路下坝","lng":104.399776,"lat":34.039921}},
{"type":"Feature","geometry":{"type":"Point","coordinates":[104.93043979383225,33.39011794857]},"properties":{"uid":1828,"name":"陇南市中医医院","province":"甘肃省","city":"陇南市","area":"武都区","address":"陇南市武都区南桥路236号","lng":104.93044,"lat":33.390118}},
{"type":"Feature","geometry":{"type":"Point","coordinates":[104.94935618488985,33.37292131268381]},"properties":{"uid":1829,"name":"陇南市人民医院","province":"甘肃省","city":"陇南市","area":"武都区","address":"甘肃省陇南市武都区东江镇5号路","lng":104.949356,"lat":33.372921}},
{"type":"Feature","geometry":{"type":"Point","coordinates":[104.93381299938747,33.387532019401654]},"properties":{"uid":1830,"name":"陇南市人民医院(盘旋北路)","province":"甘肃省","city":"陇南市","area":"武都区","address":"北山东路330号","lng":104.933813,"lat":33.387532}},
{"type":"Feature","geometry":{"type":"Point","coordinates":[104.9238801442001,33.38831517167473]},"properties":{"uid":1831,"name":"陇南市武都仁爱医院","province":"甘肃省","city":"陇南市","area":"武都区","address":"甘肃省陇南市武都区新市街路口与长江大道交汇口","lng":104.92388,"lat":33.388315}},
{"type":"Feature","geometry":{"type":"Point","coordinates":[105.17615211784873,34.18635655997664]},"properties":{"uid":1832,"name":"九州医院","province":"甘肃省","city":"陇南市","area":"礼县","address":"甘肃省陇南市礼县新关路","lng":105.176152,"lat":34.186357}},
{"type":"Feature","geometry":{"type":"Point","coordinates":[104.92486230986151,33.4028711891778]},"properties":{"uid":1833,"name":"陇南中西医结合医院","province":"甘肃省","city":"陇南市","area":"武都区","address":"武都区城关清水沟226号","lng":104.924862,"lat":33.402871}},
{"type":"Feature","geometry":{"type":"Point","coordinates":[105.17938646523716,34.19090534680984]},"properties":{"uid":1834,"name":"礼县名都医院","province":"甘肃省","city":"陇南市","area":"礼县","address":"陇南市礼县城关镇党巷35号(原农机公司旁边)","lng":105.179386,"lat":34.190905}},
{"type":"Feature","geometry":{"type":"Point","coordinates":[105.177859917763,34.18867026054329]},"properties":{"uid":1835,"name":"怡康中西医结合医院","province":"甘肃省","city":"陇南市","area":"礼县","address":"甘肃省陇南市礼县城关镇西大街38号","lng":105.17786,"lat":34.18867}},
{"type":"Feature","geometry":{"type":"Point","coordinates":[104.94676021884605,33.372119200946585]},"properties":{"uid":1836,"name":"陇南杏苑中医医院","province":"甘肃省","city":"陇南市","area":"武都区","address":"甘肃省陇南市武都区东江镇长江大道锦江商务宾馆","lng":104.94676,"lat":33.372119}},
{"type":"Feature","geometry":{"type":"Point","coordinates":[105.181384117359,34.19377267478226]},"properties":{"uid":1837,"name":"礼县华西医院","province":"甘肃省","city":"陇南市","area":"礼县","address":"陇南市礼县","lng":105.181384,"lat":34.193773}},
{"type":"Feature","geometry":{"type":"Point","coordinates":[105.18126613861432,34.19038781715374]},"properties":{"uid":1838,"name":"礼县第三人民医院","province":"甘肃省","city":"陇南市","area":"礼县","address":"陇南市礼县","lng":105.181266,"lat":34.190388}},
{"type":"Feature","geometry":{"type":"Point","coordinates":[104.9297525981905,33.39141938410835]},"properties":{"uid":1839,"name":"陇南西京医院","province":"甘肃省","city":"陇南市","area":"武都区","address":"武都区下北山西路006号","lng":104.929753,"lat":33.391419}},
{"type":"Feature","geometry":{"type":"Point","coordinates":[105.19448594523222,34.18261133121934]},"properties":{"uid":1840,"name":"礼县第一人民医院","province":"甘肃省","city":"陇南市","area":"礼县","address":"陇南市礼县城关镇东新南路","lng":105.194486,"lat":34.182611}},
{"type":"Feature","geometry":{"type":"Point","coordinates":[105.29526915042271,33.98762763288702]},"properties":{"uid":1841,"name":"西和县中医院","province":"甘肃省","city":"陇南市","area":"西和县","address":"陇南市西和县汉源镇伏羲大道","lng":105.295269,"lat":33.987628}},
{"type":"Feature","geometry":{"type":"Point","coordinates":[105.30065851987757,34.01981148914797]},"properties":{"uid":1842,"name":"西和县人民医院","province":"甘肃省","city":"陇南市","area":"西和县","address":"陇南市西和县汉源镇北川贵台新村中山北路","lng":105.300659,"lat":34.019811}},
{"type":"Feature","geometry":{"type":"Point","coordinates":[105.30125937406477,34.01219055658585]},"properties":{"uid":1843,"name":"陇南西京医院(西和分院)","province":"甘肃省","city":"陇南市","area":"西和县","address":"甘肃省陇南市西和县汉源镇仇池路高峰驾校(建设大厦北)","lng":105.301259,"lat":34.012191}},
{"type":"Feature","geometry":{"type":"Point","coordinates":[105.59080239139377,33.3285990959603]},"properties":{"uid":1844,"name":"康县阳光医院","province":"甘肃省","city":"陇南市","area":"康县","address":"城关镇西街","lng":105.590802,"lat":33.328599}},
{"type":"Feature","geometry":{"type":"Point","coordinates":[105.73805528647239,33.74392394024153]},"properties":{"uid":1845,"name":"成县中医医院","province":"甘肃省","city":"陇南市","area":"成县","address":"陇南市成县东新街29号","lng":105.738055,"lat":33.743924}},
{"type":"Feature","geometry":{"type":"Point","coordinates":[105.60618603703932,33.32902007448078]},"properties":{"uid":1846,"name":"康县第一人民医院","province":"甘肃省","city":"陇南市","area":"康县","address":"陇南市康县城关镇中街15号","lng":105.606186,"lat":33.32902}},
{"type":"Feature","geometry":{"type":"Point","coordinates":[105.74921628603686,33.740596836389855]},"properties":{"uid":1847,"name":"成县人民医院","province":"甘肃省","city":"陇南市","area":"成县","address":"甘肃省陇南市成县205省道","lng":105.749216,"lat":33.740597}},
{"type":"Feature","geometry":{"type":"Point","coordinates":[105.60207840484237,33.327504840673804]},"properties":{"uid":1848,"name":"康县中医院","province":"甘肃省","city":"陇南市","area":"康县","address":"陇南市康县城关镇南街39号","lng":105.602078,"lat":33.327505}},
{"type":"Feature","geometry":{"type":"Point","coordinates":[105.7406093938148,33.7421781925147]},"properties":{"uid":1849,"name":"成县同谷医院","province":"甘肃省","city":"陇南市","area":"成县","address":"甘肃省陇南市成县西滨北路","lng":105.740609,"lat":33.742178}},
{"type":"Feature","geometry":{"type":"Point","coordinates":[105.72540494827612,33.73759616227093]},"properties":{"uid":1850,"name":"博爱医院(西关路)","province":"甘肃省","city":"陇南市","area":"成县","address":"甘肃省陇南市成县西关路","lng":105.725405,"lat":33.737596}},
{"type":"Feature","geometry":{"type":"Point","coordinates":[105.74058993389639,33.74109904325475]},"properties":{"uid":1851,"name":"陇南协和医院","province":"甘肃省","city":"陇南市","area":"成县","address":"甘肃省陇南市成县城关镇江武路中段","lng":105.74059,"lat":33.741099}},
{"type":"Feature","geometry":{"type":"Point","coordinates":[105.74111973620337,33.75299936233397]},"properties":{"uid":1852,"name":"成县仁和医院","province":"甘肃省","city":"陇南市","area":"成县","address":"陇南大道","lng":105.74112,"lat":33.752999}},
{"type":"Feature","geometry":{"type":"Point","coordinates":[106.08448145894104,33.77120451409573]},"properties":{"uid":1853,"name":"徽县人民医院","province":"甘肃省","city":"陇南市","area":"徽县","address":"陇南市徽县北街44号","lng":106.084481,"lat":33.771205}},
{"type":"Feature","geometry":{"type":"Point","coordinates":[106.30408255254697,33.91626122251576]},"properties":{"uid":1854,"name":"两当县人民医院","province":"甘肃省","city":"陇南市","area":"两当县","address":"陇南市两当县城关镇广金路","lng":106.304083,"lat":33.916261}},
{"type":"Feature","geometry":{"type":"Point","coordinates":[106.07063720625425,33.78175463031067]},"properties":{"uid":1855,"name":"徽县中医医院","province":"甘肃省","city":"陇南市","area":"徽县","address":"陇南市徽县金徽大道紫薇花园对面","lng":106.070637,"lat":33.781755}},
{"type":"Feature","geometry":{"type":"Point","coordinates":[106.08014337764473,33.77147523400609]},"properties":{"uid":1856,"name":"陇南西京医院(徽县分院)","province":"甘肃省","city":"陇南市","area":"徽县","address":"甘肃省陇南市徽县城关镇G316(旧)分院","lng":106.080143,"lat":33.771475}},
{"type":"Feature","geometry":{"type":"Point","coordinates":[106.10147023293837,33.74571921947982]},"properties":{"uid":1857,"name":"徽县元和医院","province":"甘肃省","city":"陇南市","area":"徽县","address":"陇南市徽县","lng":106.10147,"lat":33.745719}},
{"type":"Feature","geometry":{"type":"Point","coordinates":[105.73638242855733,35.52238080132761]},"properties":{"uid":1858,"name":"静宁县人民医院","province":"甘肃省","city":"平凉市","area":"静宁县","address":"平凉市静宁县城关镇中街167号","lng":105.736382,"lat":35.522381}},
{"type":"Feature","geometry":{"type":"Point","coordinates":[105.73317208517533,35.525274669580284]},"properties":{"uid":1859,"name":"静宁县中医院","province":"甘肃省","city":"平凉市","area":"静宁县","address":"平凉市静宁县北环路130号","lng":105.733172,"lat":35.525275}},
{"type":"Feature","geometry":{"type":"Point","coordinates":[105.72903221867963,35.52790932041024]},"properties":{"uid":1860,"name":"静宁张永新中医院","province":"甘肃省","city":"平凉市","area":"静宁县","address":"西环路附近","lng":105.729032,"lat":35.527909}},
{"type":"Feature","geometry":{"type":"Point","coordinates":[105.966820331603,35.33648854011869]},"properties":{"uid":1861,"name":"南湖医院","province":"甘肃省","city":"平凉市","area":"庄浪县","address":"甘肃省平凉市庄浪县南湖镇南湖桥浪庄县南湖中心卫生院","lng":105.96682,"lat":35.336489}},
{"type":"Feature","geometry":{"type":"Point","coordinates":[106.70682451141239,35.53457456314548]},"properties":{"uid":1862,"name":"甘肃医学院附属医院","province":"甘肃省","city":"平凉市","area":"崆峒区","address":"平凉市崆峒区崆峒东路296号","lng":106.706825,"lat":35.534575}},
{"type":"Feature","geometry":{"type":"Point","coordinates":[106.69924134964346,35.53262550110506]},"properties":{"uid":1863,"name":"平凉市和平医院","province":"甘肃省","city":"平凉市","area":"崆峒区","address":"平凉市崆峒区过店街110号","lng":106.699241,"lat":35.532626}},
{"type":"Feature","geometry":{"type":"Point","coordinates":[106.6753695228706,35.54059006677601]},"properties":{"uid":1864,"name":"平凉皇甫谧思平医院","province":"甘肃省","city":"平凉市","area":"崆峒区","address":"甘肃省平凉市崆峒区西大街2号","lng":106.67537,"lat":35.54059}},
{"type":"Feature","geometry":{"type":"Point","coordinates":[106.68133882123253,35.53804845379051]},"properties":{"uid":1865,"name":"平凉市第二人民医院","province":"甘肃省","city":"平凉市","area":"崆峒区","address":"平凉市崆峒区东大街52号","lng":106.681339,"lat":35.538048}},
{"type":"Feature","geometry":{"type":"Point","coordinates":[106.69213418227312,35.53692072500693]},"properties":{"uid":1866,"name":"平凉市中医医院","province":"甘肃省","city":"平凉市","area":"崆峒区","address":"甘肃省平凉市崆峒区中山街109号","lng":106.692134,"lat":35.536921}},
{"type":"Feature","geometry":{"type":"Point","coordinates":[106.66314288855045,35.546140194599566]},"properties":{"uid":1867,"name":"华康医院","province":"甘肃省","city":"平凉市","area":"崆峒区","address":"甘肃省平凉市崆峒区城西路与西门坡交汇处附近西南方向58米","lng":106.663143,"lat":35.54614}},
{"type":"Feature","geometry":{"type":"Point","coordinates":[106.61123311243122,35.19922095439416]},"properties":{"uid":1868,"name":"华亭市人民医院","province":"甘肃省","city":"平凉市","area":"华亭市","address":"平凉市华亭市西华镇100乡道","lng":106.611233,"lat":35.199221}},
{"type":"Feature","geometry":{"type":"Point","coordinates":[106.66036493456394,35.549937935912574]},"properties":{"uid":1869,"name":"平凉广济医院","province":"甘肃省","city":"平凉市","area":"崆峒区","address":"来远路2号","lng":106.660365,"lat":35.549938}},
{"type":"Feature","geometry":{"type":"Point","coordinates":[106.68992554351519,35.53587480676333]},"properties":{"uid":1870,"name":"平凉北大医院","province":"甘肃省","city":"平凉市","area":"崆峒区","address":"平凉市崆峒区新民南路1号新世纪商厦斜对面","lng":106.689926,"lat":35.535875}},
{"type":"Feature","geometry":{"type":"Point","coordinates":[106.68806153590856,35.54836818426809]},"properties":{"uid":1871,"name":"平凉精诚中医医院","province":"甘肃省","city":"平凉市","area":"崆峒区","address":"甘肃省平凉市崆峒区农科路41号","lng":106.688062,"lat":35.548368}},
{"type":"Feature","geometry":{"type":"Point","coordinates":[106.65264553519462,35.213809980080356]},"properties":{"uid":1872,"name":"华亭县中医医院","province":"甘肃省","city":"平凉市","area":"华亭市","address":"平凉市华亭市南新街217号","lng":106.652646,"lat":35.21381}},
{"type":"Feature","geometry":{"type":"Point","coordinates":[106.64814082993179,35.218047243210684]},"properties":{"uid":1873,"name":"华仁医院","province":"甘肃省","city":"平凉市","area":"华亭市","address":"平凉市华亭市北大街27号","lng":106.648141,"lat":35.218047}},
{"type":"Feature","geometry":{"type":"Point","coordinates":[106.6928971809048,35.536000695281565]},"properties":{"uid":1874,"name":"平凉春晓医院","province":"甘肃省","city":"平凉市","area":"崆峒区","address":"崆峒区中山街76号(工贸商厦附近)","lng":106.692897,"lat":35.536001}},
{"type":"Feature","geometry":{"type":"Point","coordinates":[106.72257985952588,35.51982595133655]},"properties":{"uid":1875,"name":"平凉市第四人民医院","province":"甘肃省","city":"平凉市","area":"崆峒区","address":"平凉市崆峒区西兰东路101号","lng":106.72258,"lat":35.519826}},
{"type":"Feature","geometry":{"type":"Point","coordinates":[106.69989975643358,35.53601718545962]},"properties":{"uid":1876,"name":"平凉仁德生殖医院","province":"甘肃省","city":"平凉市","area":"崆峒区","address":"园巷汪家园与崆峒大道(东段)交叉口南100米","lng":106.6999,"lat":35.536017}},
{"type":"Feature","geometry":{"type":"Point","coordinates":[107.02777264630191,35.301044557357656]},"properties":{"uid":1877,"name":"崇信县人民医院","province":"甘肃省","city":"平凉市","area":"崇信县","address":"平凉市崇信县新西街34号","lng":107.027773,"lat":35.301045}},
{"type":"Feature","geometry":{"type":"Point","coordinates":[106.86583027607423,35.46817782146919]},"properties":{"uid":1878,"name":"平凉市第三人民医院","province":"甘肃省","city":"平凉市","area":"崆峒区","address":"甘肃省平凉市崆峒区四十里铺镇鑫港城小区附近","lng":106.86583,"lat":35.468178}},
{"type":"Feature","geometry":{"type":"Point","coordinates":[107.03566017061974,35.308060226701464]},"properties":{"uid":1879,"name":"崇信协和医院","province":"甘肃省","city":"平凉市","area":"崇信县","address":"甘肃省平凉市崇信县滨河东路附近","lng":107.03566,"lat":35.30806}},
{"type":"Feature","geometry":{"type":"Point","coordinates":[106.9141895872499,35.15446121387833]},"properties":{"uid":1880,"name":"华煤集团总医院(新窑分院)","province":"甘肃省","city":"平凉市","area":"崇信县","address":"304省道附近","lng":106.91419,"lat":35.154461}},
{"type":"Feature","geometry":{"type":"Point","coordinates":[108.35816633397704,35.49981699938422]},"properties":{"uid":1881,"name":"正宁县人民医院","province":"甘肃省","city":"庆阳市","area":"正宁县","address":"庆阳市正宁县和平路1号","lng":108.358166,"lat":35.499817}},
{"type":"Feature","geometry":{"type":"Point","coordinates":[108.36704149805041,35.49126822883367]},"properties":{"uid":1882,"name":"正宁县中医医院","province":"甘肃省","city":"庆阳市","area":"正宁县","address":"庆阳市正宁县县城东街8号","lng":108.367041,"lat":35.491268}},
{"type":"Feature","geometry":{"type":"Point","coordinates":[108.01819299735716,35.818238824501684]},"properties":{"uid":1883,"name":"合水县人民医院","province":"甘肃省","city":"庆阳市","area":"合水县","address":"庆阳市合水县西华池镇西华北街36号","lng":108.018193,"lat":35.818239}},
{"type":"Feature","geometry":{"type":"Point","coordinates":[108.02296273648882,35.832634369179374]},"properties":{"uid":1884,"name":"合水县中医院","province":"甘肃省","city":"庆阳市","area":"合水县","address":"庆阳市合水县G211(西华北街)","lng":108.022963,"lat":35.832634}},
{"type":"Feature","geometry":{"type":"Point","coordinates":[107.20138749627411,35.67620368314396]},"properties":{"uid":1885,"name":"庆阳市镇原县第一人民医院","province":"甘肃省","city":"庆阳市","area":"镇原县","address":"庆阳市镇原县庆阳地区中街24号","lng":107.201387,"lat":35.676204}},
{"type":"Feature","geometry":{"type":"Point","coordinates":[107.19961517844828,35.672411928303944]},"properties":{"uid":1886,"name":"镇原县中医院","province":"甘肃省","city":"庆阳市","area":"镇原县","address":"甘肃省庆阳市镇原县滨河南路3号","lng":107.199615,"lat":35.672412}},
{"type":"Feature","geometry":{"type":"Point","coordinates":[107.26088915662311,35.83640217282655]},"properties":{"uid":1887,"name":"镇原县第二人民医院","province":"甘肃省","city":"庆阳市","area":"镇原县","address":"甘肃省庆阳市镇原县孟坝镇中街23号","lng":107.260889,"lat":35.836402}},
{"type":"Feature","geometry":{"type":"Point","coordinates":[107.64603118265492,35.71730844062611]},"properties":{"uid":1888,"name":"庆阳市人民医院","province":"甘肃省","city":"庆阳市","area":"西峰区","address":"庆阳市西峰区兰州路30号","lng":107.646031,"lat":35.717308}},
{"type":"Feature","geometry":{"type":"Point","coordinates":[107.63221711951346,35.748022902231384]},"properties":{"uid":1889,"name":"庆阳市中医医院","province":"甘肃省","city":"庆阳市","area":"西峰区","address":"庆阳市西峰区古象西路10号","lng":107.632217,"lat":35.748023}},
{"type":"Feature","geometry":{"type":"Point","coordinates":[107.67042544122812,35.67866487070002]},"properties":{"uid":1890,"name":"庆阳市第二人民医院","province":"甘肃省","city":"庆阳市","area":"西峰区","address":"庆阳市西峰区北京大道南1号","lng":107.670425,"lat":35.678665}},
{"type":"Feature","geometry":{"type":"Point","coordinates":[107.92594125549003,35.50660379879385]},"properties":{"uid":1891,"name":"宁县人民医院","province":"甘肃省","city":"庆阳市","area":"宁县","address":"庆阳市宁县保健路2号","lng":107.925941,"lat":35.506604}},
{"type":"Feature","geometry":{"type":"Point","coordinates":[107.7648442763548,35.440987497214955]},"properties":{"uid":1892,"name":"宁县第二人民医院","province":"甘肃省","city":"庆阳市","area":"宁县","address":"庆阳市宁县和盛南大街8号","lng":107.764844,"lat":35.440987}},
{"type":"Feature","geometry":{"type":"Point","coordinates":[107.64326472582292,35.72090307517487]},"properties":{"uid":1893,"name":"庆阳惠仁医院","province":"甘肃省","city":"庆阳市","area":"西峰区","address":"庆阳市西峰区","lng":107.643265,"lat":35.720903}},
{"type":"Feature","geometry":{"type":"Point","coordinates":[107.91030716203326,35.50718592288948]},"properties":{"uid":1894,"name":"宁县中医院","province":"甘肃省","city":"庆阳市","area":"宁县","address":"甘肃省庆阳市宁县中医东门(宁州大道)","lng":107.910307,"lat":35.507186}},
{"type":"Feature","geometry":{"type":"Point","coordinates":[107.67652779304923,35.72336747143598]},"properties":{"uid":1895,"name":"庆阳国医中医医院","province":"甘肃省","city":"庆阳市","area":"西峰区","address":"甘肃省庆阳市西峰区兰州东路47号","lng":107.676528,"lat":35.723367}},
{"type":"Feature","geometry":{"type":"Point","coordinates":[107.64751831043561,35.72381300532892]},"properties":{"uid":1896,"name":"远航电脑医院","province":"甘肃省","city":"庆阳市","area":"西峰区","address":"育才东路20号","lng":107.647518,"lat":35.723813}},
{"type":"Feature","geometry":{"type":"Point","coordinates":[107.64619038888937,35.743037083105456]},"properties":{"uid":1897,"name":"庆阳爱心医院","province":"甘肃省","city":"庆阳市","area":"西峰区","address":"甘肃省庆阳市西峰区解放东路6","lng":107.64619,"lat":35.743037}},
{"type":"Feature","geometry":{"type":"Point","coordinates":[107.31256115718648,36.567808380302345]},"properties":{"uid":1898,"name":"环县人民医院","province":"甘肃省","city":"庆阳市","area":"环县","address":"庆阳市环县环城南街10号","lng":107.312561,"lat":36.567808}},
{"type":"Feature","geometry":{"type":"Point","coordinates":[107.3030700571926,36.5721132354679]},"properties":{"uid":1899,"name":"环县中医医院","province":"甘肃省","city":"庆阳市","area":"环县","address":"甘肃省庆阳市环县兴隆路55号","lng":107.30307,"lat":36.572113}},
{"type":"Feature","geometry":{"type":"Point","coordinates":[107.30464297435331,36.57474333927132]},"properties":{"uid":1900,"name":"康泰医院","province":"甘肃省","city":"庆阳市","area":"环县","address":"中街与兴隆路交叉口东北150米","lng":107.304643,"lat":36.574743}},
{"type":"Feature","geometry":{"type":"Point","coordinates":[107.89528338532408,35.99052246471733]},"properties":{"uid":1901,"name":"庆城县人民医院","province":"甘肃省","city":"庆阳市","area":"庆城县","address":"庆阳市庆城县南大街83号","lng":107.895283,"lat":35.990522}},
{"type":"Feature","geometry":{"type":"Point","coordinates":[107.8875364199635,36.017981485541625]},"properties":{"uid":1902,"name":"庆城县岐伯中医医院","province":"甘肃省","city":"庆阳市","area":"庆城县","address":"庆阳市庆城县庆华路与岐伯路交叉口","lng":107.887536,"lat":36.017981}},
{"type":"Feature","geometry":{"type":"Point","coordinates":[107.97238184799872,36.431044614398395]},"properties":{"uid":1903,"name":"华池县人民医院","province":"甘肃省","city":"庆阳市","area":"华池县","address":"庆阳市华池县华庆路","lng":107.972382,"lat":36.431045}},
{"type":"Feature","geometry":{"type":"Point","coordinates":[107.88350432160398,36.00475581071134]},"properties":{"uid":1904,"name":"长庆油田职工医院","province":"甘肃省","city":"庆阳市","area":"庆城县","address":"庆城县县人民路8号","lng":107.883504,"lat":36.004756}},
{"type":"Feature","geometry":{"type":"Point","coordinates":[107.98424687059898,36.455753374473225]},"properties":{"uid":1905,"name":"华池县中医医院","province":"甘肃省","city":"庆阳市","area":"华池县","address":"庆阳市华池县华吴路2号","lng":107.984247,"lat":36.455753}},
{"type":"Feature","geometry":{"type":"Point","coordinates":[104.89206766238284,34.72295756298761]},"properties":{"uid":1906,"name":"武山县人民医院","province":"甘肃省","city":"天水市","area":"武山县","address":"武山县城管镇解放路105号","lng":104.892068,"lat":34.722958}},
{"type":"Feature","geometry":{"type":"Point","coordinates":[105.03122292956522,34.760238475607636]},"properties":{"uid":1907,"name":"武山县中医医院","province":"甘肃省","city":"天水市","area":"武山县","address":"天水市武山县洛门镇宁远路31号","lng":105.031223,"lat":34.760238}},
{"type":"Feature","geometry":{"type":"Point","coordinates":[104.88983833189984,34.72308674085945]},"properties":{"uid":1908,"name":"武山西京医院","province":"甘肃省","city":"天水市","area":"武山县","address":"天水市武山县南滨河路64号","lng":104.889838,"lat":34.723087}},
{"type":"Feature","geometry":{"type":"Point","coordinates":[104.89542048797837,34.72428918413868]},"properties":{"uid":1909,"name":"武山济康医院","province":"甘肃省","city":"天水市","area":"武山县","address":"南滨河路与宁远路交叉口西100米","lng":104.89542,"lat":34.724289}},
{"type":"Feature","geometry":{"type":"Point","coordinates":[105.12203574018257,34.75409652369443]},"properties":{"uid":1910,"name":"磐安济仁医院","province":"甘肃省","city":"天水市","area":"甘谷县","address":"甘肃省天水市甘谷县G316(福兰线)","lng":105.122036,"lat":34.754097}},
{"type":"Feature","geometry":{"type":"Point","coordinates":[104.92074344911875,34.72162868187029]},"properties":{"uid":1911,"name":"武山仁爱医院","province":"甘肃省","city":"天水市","area":"武山县","address":"南滨河路与宁远大道交叉口东100米","lng":104.920743,"lat":34.721629}},
{"type":"Feature","geometry":{"type":"Point","coordinates":[105.12295033048233,34.75438946521615]},"properties":{"uid":1912,"name":"磐安为民医院","province":"甘肃省","city":"天水市","area":"甘谷县","address":"316国道北50米","lng":105.12295,"lat":34.754389}},
{"type":"Feature","geometry":{"type":"Point","coordinates":[105.03098006733666,34.753580141150074]},"properties":{"uid":1913,"name":"矿疗医院","province":"甘肃省","city":"天水市","area":"武山县","address":"甘肃省天水市武山县繁荣路","lng":105.03098,"lat":34.75358}},
{"type":"Feature","geometry":{"type":"Point","coordinates":[105.33289400222976,34.74132302697905]},"properties":{"uid":1914,"name":"甘谷县人民医院","province":"甘肃省","city":"天水市","area":"甘谷县","address":"天水市甘谷县大像山镇北关东巷63号","lng":105.332894,"lat":34.741323}},
{"type":"Feature","geometry":{"type":"Point","coordinates":[105.32483824803323,34.76402216157625]},"properties":{"uid":1915,"name":"甘谷县中医医院","province":"甘肃省","city":"天水市","area":"甘谷县","address":"天水市甘谷县新兴镇新城北路206号","lng":105.324838,"lat":34.764022}},
{"type":"Feature","geometry":{"type":"Point","coordinates":[105.31991724967881,34.736599206288275]},"properties":{"uid":1916,"name":"西京医院","province":"甘肃省","city":"天水市","area":"甘谷县","address":"天水市甘谷县像山西路","lng":105.319917,"lat":34.736599}},
{"type":"Feature","geometry":{"type":"Point","coordinates":[105.3293859986044,34.747624654791764]},"properties":{"uid":1917,"name":"康庄医院","province":"甘肃省","city":"天水市","area":"甘谷县","address":"甘肃省天水市甘谷县康庄西路","lng":105.329386,"lat":34.747625}},
{"type":"Feature","geometry":{"type":"Point","coordinates":[105.32799015256072,34.730589893612084]},"properties":{"uid":1918,"name":"澍仁医院","province":"甘肃省","city":"天水市","area":"甘谷县","address":"甘肃省天水市甘谷县大像山镇南环路树仁医院(盛世花苑附近)","lng":105.32799,"lat":34.73059}},
{"type":"Feature","geometry":{"type":"Point","coordinates":[105.3316142246572,34.76252355252824]},"properties":{"uid":1919,"name":"甘谷华夏医院","province":"甘肃省","city":"天水市","area":"甘谷县","address":"天水市甘谷县道南路49号","lng":105.331614,"lat":34.762524}},
{"type":"Feature","geometry":{"type":"Point","coordinates":[105.7374822713178,34.579208753133784]},"properties":{"uid":1920,"name":"天水市第一人民医院","province":"甘肃省","city":"天水市","area":"秦州区","address":"天水市秦州区建设路105号","lng":105.737482,"lat":34.579209}},
{"type":"Feature","geometry":{"type":"Point","coordinates":[105.8931120249834,34.56410060265955]},"properties":{"uid":1921,"name":"天水市第二人民医院","province":"甘肃省","city":"天水市","area":"麦积区","address":"天水市麦积区渭滨北路西26号","lng":105.893112,"lat":34.564101}},
{"type":"Feature","geometry":{"type":"Point","coordinates":[105.71537450081723,34.57418118380589]},"properties":{"uid":1922,"name":"天水四〇七医院","province":"甘肃省","city":"天水市","area":"秦州区","address":"天水市秦州区环城西路11号","lng":105.715375,"lat":34.574181}},
{"type":"Feature","geometry":{"type":"Point","coordinates":[105.71875482524722,34.57497315519763]},"properties":{"uid":1923,"name":"天水市中医医院","province":"甘肃省","city":"天水市","area":"秦州区","address":"天水市秦州区藉河北路6号","lng":105.718755,"lat":34.574973}},
{"type":"Feature","geometry":{"type":"Point","coordinates":[105.89241477675128,34.57012856506477]},"properties":{"uid":1924,"name":"天水市第四人民医院","province":"甘肃省","city":"天水市","area":"麦积区","address":"天水市麦积区区府路34号","lng":105.892415,"lat":34.570129}},
{"type":"Feature","geometry":{"type":"Point","coordinates":[105.67381517070474,34.85328347044991]},"properties":{"uid":1925,"name":"秦安县人民医院","province":"甘肃省","city":"天水市","area":"秦安县","address":"秦安县解放路20号","lng":105.673815,"lat":34.853283}},
{"type":"Feature","geometry":{"type":"Point","coordinates":[105.66842728261066,34.86294785877252]},"properties":{"uid":1926,"name":"秦安县中医医院","province":"甘肃省","city":"天水市","area":"秦安县","address":"天水市秦安县兴国镇拽渠边61号","lng":105.668427,"lat":34.862948}},
{"type":"Feature","geometry":{"type":"Point","coordinates":[105.69092562583955,34.57498510180092]},"properties":{"uid":1927,"name":"天水中山医院","province":"甘肃省","city":"天水市","area":"秦州区","address":"精表路17号附近","lng":105.690926,"lat":34.574985}},
{"type":"Feature","geometry":{"type":"Point","coordinates":[105.9910647882853,34.55538222905842]},"properties":{"uid":1928,"name":"天水市第五人民医院","province":"甘肃省","city":"天水市","area":"麦积区","address":"天水市麦积区社棠镇社棠东路39号","lng":105.991065,"lat":34.555382}},
{"type":"Feature","geometry":{"type":"Point","coordinates":[105.70339754332106,34.56824543126393]},"properties":{"uid":1929,"name":"天水民康医院","province":"甘肃省","city":"天水市","area":"秦州区","address":"天水市秦州区师院路1号","lng":105.703398,"lat":34.568245}},
{"type":"Feature","geometry":{"type":"Point","coordinates":[105.65767009409872,34.70040143402437]},"properties":{"uid":1930,"name":"麦积康宁医院","province":"甘肃省","city":"天水市","area":"麦积区","address":"中滩镇雷王村上街66号","lng":105.65767,"lat":34.700401}},
{"type":"Feature","geometry":{"type":"Point","coordinates":[105.7613040634679,34.57421182892021]},"properties":{"uid":1931,"name":"海林医院","province":"甘肃省","city":"天水市","area":"秦州区","address":"羲皇大道中段","lng":105.761304,"lat":34.574212}},
{"type":"Feature","geometry":{"type":"Point","coordinates":[105.79653419721271,34.568390165114856]},"properties":{"uid":1932,"name":"核地质二一九医院","province":"甘肃省","city":"天水市","area":"麦积区","address":"甘肃省天水市麦积区花牛镇高湾甘肃省核地质二一九医院","lng":105.796534,"lat":34.56839}},
{"type":"Feature","geometry":{"type":"Point","coordinates":[105.66606191122229,34.860398679002465]},"properties":{"uid":1933,"name":"天水仁康医院","province":"甘肃省","city":"天水市","area":"秦安县","address":"成纪大道22号","lng":105.666062,"lat":34.860399}},
{"type":"Feature","geometry":{"type":"Point","coordinates":[105.69888835157157,34.57730023781243]},"properties":{"uid":1934,"name":"天水铁路电缆职工医院","province":"甘肃省","city":"天水市","area":"秦州区","address":"天水市秦州区坚家河4号","lng":105.698888,"lat":34.5773}},
{"type":"Feature","geometry":{"type":"Point","coordinates":[105.76972923031593,34.58010206190149]},"properties":{"uid":1935,"name":"天水长开医院","province":"甘肃省","city":"天水市","area":"秦州区","address":"长开幼儿园附近","lng":105.769729,"lat":34.580102}},
{"type":"Feature","geometry":{"type":"Point","coordinates":[105.71746674728435,34.578815588977115]},"properties":{"uid":1936,"name":"天水市慈善总会和平医院","province":"甘肃省","city":"天水市","area":"秦州区","address":"甘肃省天水市秦州区解放路59号","lng":105.717467,"lat":34.578816}},
{"type":"Feature","geometry":{"type":"Point","coordinates":[105.73320010872341,34.5836480354826]},"properties":{"uid":1937,"name":"仁和医院","province":"甘肃省","city":"天水市","area":"秦州区","address":"合作北路1号","lng":105.7332,"lat":34.583648}},
{"type":"Feature","geometry":{"type":"Point","coordinates":[105.89160010481308,34.54715595697507]},"properties":{"uid":1938,"name":"甘肃省小陇山林业实验局职工医院","province":"甘肃省","city":"天水市","area":"麦积区","address":"天水市麦积区花牛路8号","lng":105.8916,"lat":34.547156}},
{"type":"Feature","geometry":{"type":"Point","coordinates":[105.9393046963481,34.4510273519725]},"properties":{"uid":1939,"name":"天水麦积普济医院","province":"甘肃省","city":"天水市","area":"麦积区","address":"天水市麦积区","lng":105.939305,"lat":34.451027}},
{"type":"Feature","geometry":{"type":"Point","coordinates":[105.72477930450712,34.58455837410658]},"properties":{"uid":1940,"name":"天水退休医师医院","province":"甘肃省","city":"天水市","area":"秦州区","address":"成纪大道47号","lng":105.724779,"lat":34.584558}},
{"type":"Feature","geometry":{"type":"Point","coordinates":[105.70630616567773,34.58048713179636]},"properties":{"uid":1941,"name":"红军医院","province":"甘肃省","city":"天水市","area":"秦州区","address":"天水市秦州区人民西路69号","lng":105.706306,"lat":34.580487}},
{"type":"Feature","geometry":{"type":"Point","coordinates":[105.89303359775927,34.563669280278155]},"properties":{"uid":1942,"name":"中国巴基斯坦友好医院","province":"甘肃省","city":"天水市","area":"麦积区","address":"渭滨大厦附近","lng":105.893034,"lat":34.563669}},
{"type":"Feature","geometry":{"type":"Point","coordinates":[105.69283176033584,34.5751087538615]},"properties":{"uid":1943,"name":"天水市第三人民医院","province":"甘肃省","city":"天水市","area":"秦州区","address":"天水市秦州区精表路17号","lng":105.692832,"lat":34.575109}},
{"type":"Feature","geometry":{"type":"Point","coordinates":[105.67407294140425,34.56696470602562]},"properties":{"uid":1944,"name":"天水新天坛医院","province":"甘肃省","city":"天水市","area":"秦州区","address":"天水市秦州区赤峪路88号","lng":105.674073,"lat":34.566965}},
{"type":"Feature","geometry":{"type":"Point","coordinates":[105.72559575185878,34.57823880891336]},"properties":{"uid":1945,"name":"天水玛莉亚医院","province":"甘肃省","city":"天水市","area":"秦州区","address":"甘肃省天水市秦州区青年南路","lng":105.725596,"lat":34.578239}},
{"type":"Feature","geometry":{"type":"Point","coordinates":[105.9082898006047,34.563666485792304]},"properties":{"uid":1946,"name":"天水协和医院","province":"甘肃省","city":"天水市","area":"麦积区","address":"天水市麦积区陇昌路东110号(一马路东侧)","lng":105.90829,"lat":34.563666}},
{"type":"Feature","geometry":{"type":"Point","coordinates":[105.76037951427747,34.57392091348032]},"properties":{"uid":1947,"name":"长控医院","province":"甘肃省","city":"天水市","area":"秦州区","address":"羲皇大道西路11","lng":105.76038,"lat":34.573921}},
{"type":"Feature","geometry":{"type":"Point","coordinates":[105.72868044466234,34.58330959569966]},"properties":{"uid":1948,"name":"天水正大医院","province":"甘肃省","city":"天水市","area":"秦州区","address":"天水市秦州区新华路91号","lng":105.72868,"lat":34.58331}},
{"type":"Feature","geometry":{"type":"Point","coordinates":[105.6845173893557,34.552207920464916]},"properties":{"uid":1949,"name":"中山医院","province":"甘肃省","city":"天水市","area":"秦州区","address":"天水市秦州区红山路2号","lng":105.684517,"lat":34.552208}},
{"type":"Feature","geometry":{"type":"Point","coordinates":[105.79245068225116,34.56874170488171]},"properties":{"uid":1950,"name":"康达医院","province":"甘肃省","city":"天水市","area":"麦积区","address":"甘肃省天水市麦积区曹家埂天使幼儿园西(羲皇大道中路)","lng":105.792451,"lat":34.568742}},
{"type":"Feature","geometry":{"type":"Point","coordinates":[105.93290463323099,34.540664624601916]},"properties":{"uid":1951,"name":"麦积养正医院","province":"甘肃省","city":"天水市","area":"麦积区","address":"甘肃省天水市麦积区养正医院(羲皇大道东路)","lng":105.932905,"lat":34.540665}},
{"type":"Feature","geometry":{"type":"Point","coordinates":[105.91043485743742,34.558062443846275]},"properties":{"uid":1952,"name":"风动医院","province":"甘肃省","city":"天水市","area":"麦积区","address":"甘肃省天水市麦积区成纪大道东路","lng":105.910435,"lat":34.558062}},
{"type":"Feature","geometry":{"type":"Point","coordinates":[105.89276738191212,34.563398774235]},"properties":{"uid":1953,"name":"天水退休专家医院","province":"甘肃省","city":"天水市","area":"麦积区","address":"甘肃省天水市麦积区渭滨北路(三马路)渭河风情线2号","lng":105.892767,"lat":34.563399}},
{"type":"Feature","geometry":{"type":"Point","coordinates":[105.88113644182084,34.54619866435274]},"properties":{"uid":1954,"name":"天康医院","province":"甘肃省","city":"天水市","area":"麦积区","address":"甘肃省天水市麦积区拥军路","lng":105.881136,"lat":34.546199}},
{"type":"Feature","geometry":{"type":"Point","coordinates":[105.88726516917367,34.57085529001049]},"properties":{"uid":1955,"name":"天水锻压机床厂职工医院","province":"甘肃省","city":"天水市","area":"麦积区","address":"甘肃省天水市麦积区区府西路","lng":105.887265,"lat":34.570855}},
{"type":"Feature","geometry":{"type":"Point","coordinates":[105.91030340667682,34.540974236067356]},"properties":{"uid":1956,"name":"恒康医院","province":"甘肃省","city":"天水市","area":"麦积区","address":"天水市麦积区羲皇大道东路与泉湖路交叉口","lng":105.910303,"lat":34.540974}},
{"type":"Feature","geometry":{"type":"Point","coordinates":[106.20618334633527,34.986535567616684]},"properties":{"uid":1957,"name":"张家川回族自治县中医医院","province":"甘肃省","city":"天水市","area":"张家川回族自治县","address":"天水市张家川回族自治县阿阳大道35号","lng":106.206183,"lat":34.986536}},
{"type":"Feature","geometry":{"type":"Point","coordinates":[106.15764871773578,34.74556586485923]},"properties":{"uid":1958,"name":"清水县人民医院","province":"甘肃省","city":"天水市","area":"清水县","address":"天水市清水县泰山路与花石崖路交叉路口向西北约100米","lng":106.157649,"lat":34.745566}},
{"type":"Feature","geometry":{"type":"Point","coordinates":[106.07193246079046,34.75356462399641]},"properties":{"uid":1959,"name":"天水仁济中西医结合医院","province":"甘肃省","city":"天水市","area":"清水县","address":"甘肃省天水市清水县庄天路支线","lng":106.071932,"lat":34.753565}},
{"type":"Feature","geometry":{"type":"Point","coordinates":[106.21008065838569,35.00247763910682]},"properties":{"uid":1960,"name":"爱民医院","province":"甘肃省","city":"天水市","area":"张家川回族自治县","address":"甘肃省天水市张家川回族自治县中城北路东50米","lng":106.210081,"lat":35.002478}},
{"type":"Feature","geometry":{"type":"Point","coordinates":[102.50972031317518,36.94456915195659]},"properties":{"uid":1961,"name":"天祝县藏研所天堂藏医院","province":"甘肃省","city":"武威市","area":"天祝藏族自治县","address":"甘肃省武威市天祝藏族自治县天堂乡卫生院(天堂寺西南60米)","lng":102.50972,"lat":36.944569}},
{"type":"Feature","geometry":{"type":"Point","coordinates":[102.5950388910442,37.441230440095666]},"properties":{"uid":1962,"name":"天祝藏族自治县第二人民医院","province":"甘肃省","city":"武威市","area":"天祝藏族自治县","address":"甘肃省武威市天祝藏族自治县哈溪镇黄哈路藏族自治县哈溪中心卫生院","lng":102.595039,"lat":37.44123}},
{"type":"Feature","geometry":{"type":"Point","coordinates":[103.1436124539471,36.96840177436811]},"properties":{"uid":1963,"name":"天祝藏族自治县人民医院","province":"甘肃省","city":"武威市","area":"天祝藏族自治县","address":"武威市天祝县华藏镇团结路86号","lng":103.143612,"lat":36.968402}},
{"type":"Feature","geometry":{"type":"Point","coordinates":[102.89728483546699,37.48131612451816]},"properties":{"uid":1964,"name":"古浪县人民医院","province":"甘肃省","city":"武威市","area":"古浪县","address":"武威市古浪县城312国道","lng":102.897285,"lat":37.481316}},
{"type":"Feature","geometry":{"type":"Point","coordinates":[103.13171171442038,36.98035764800875]},"properties":{"uid":1965,"name":"天祝藏族自治县藏医院","province":"甘肃省","city":"武威市","area":"天祝藏族自治县","address":"武威市天祝藏族自治县华藏镇祝贡北路8号","lng":103.131712,"lat":36.980358}},
{"type":"Feature","geometry":{"type":"Point","coordinates":[103.14551205250551,36.96215248098544]},"properties":{"uid":1966,"name":"天祝华藏寺华晟医院","province":"甘肃省","city":"武威市","area":"天祝藏族自治县","address":"延禧路华藏寺管理所附近","lng":103.145512,"lat":36.962152}},
{"type":"Feature","geometry":{"type":"Point","coordinates":[102.89527443338763,37.466428080030866]},"properties":{"uid":1967,"name":"惠民医院","province":"甘肃省","city":"武威市","area":"古浪县","address":"武威市古浪县建设路与昌松路交叉口东100米","lng":102.895274,"lat":37.466428}},
{"type":"Feature","geometry":{"type":"Point","coordinates":[102.89556967218435,37.471527059353654]},"properties":{"uid":1968,"name":"中西结合医院","province":"甘肃省","city":"武威市","area":"古浪县","address":"甘肃省武威市古浪县浙大小区南门对面","lng":102.89557,"lat":37.471527}},
{"type":"Feature","geometry":{"type":"Point","coordinates":[102.89711436555778,37.466405781962145]},"properties":{"uid":1969,"name":"仁和医院","province":"甘肃省","city":"武威市","area":"古浪县","address":"甘肃省武威市古浪县旧大路","lng":102.897114,"lat":37.466406}},
{"type":"Feature","geometry":{"type":"Point","coordinates":[103.42420382429309,37.496710716269064]},"properties":{"uid":1970,"name":"古浪县中医医院","province":"甘肃省","city":"武威市","area":"古浪县","address":"武威市古浪县金色大道","lng":103.424204,"lat":37.496711}},
{"type":"Feature","geometry":{"type":"Point","coordinates":[102.60807015645777,37.941063440210044]},"properties":{"uid":1971,"name":"武威市人民医院","province":"甘肃省","city":"武威市","area":"凉州区","address":"武威市凉州区宣武街北侧","lng":102.60807,"lat":37.941063}},
{"type":"Feature","geometry":{"type":"Point","coordinates":[102.64499575030199,37.929119593873594]},"properties":{"uid":1972,"name":"武威市凉州医院","province":"甘肃省","city":"武威市","area":"凉州区","address":"武威市凉州区东大街8号","lng":102.644996,"lat":37.92912}},
{"type":"Feature","geometry":{"type":"Point","coordinates":[102.65156224158153,37.92504541213327]},"properties":{"uid":1973,"name":"武威市中医医院","province":"甘肃省","city":"武威市","area":"凉州区","address":"武威市凉州区东关街复兴南路111号","lng":102.651562,"lat":37.925045}},
{"type":"Feature","geometry":{"type":"Point","coordinates":[102.73454545944753,37.82123698368148]},"properties":{"uid":1974,"name":"武威市第二人民医院","province":"甘肃省","city":"武威市","area":"凉州区","address":"武威市凉州区武南镇武南街38号","lng":102.734545,"lat":37.821237}},
{"type":"Feature","geometry":{"type":"Point","coordinates":[102.61552617551374,37.92218763931698]},"properties":{"uid":1975,"name":"武威博爱医院","province":"甘肃省","city":"武威市","area":"凉州区","address":"甘肃省武威市凉州区民勤路314号","lng":102.615526,"lat":37.922188}},
{"type":"Feature","geometry":{"type":"Point","coordinates":[102.64485557464917,37.93507329381866]},"properties":{"uid":1976,"name":"解放军第十医院","province":"甘肃省","city":"武威市","area":"凉州区","address":"武威市凉州区北关东路3号","lng":102.644856,"lat":37.935073}},
{"type":"Feature","geometry":{"type":"Point","coordinates":[102.62896008655851,37.93776782238241]},"properties":{"uid":1977,"name":"武威市协和医院","province":"甘肃省","city":"武威市","area":"凉州区","address":"武威市凉州区海藏路99","lng":102.62896,"lat":37.937768}},
{"type":"Feature","geometry":{"type":"Point","coordinates":[102.62890104787694,37.936770080221315]},"properties":{"uid":1978,"name":"武威二一二医院","province":"甘肃省","city":"武威市","area":"凉州区","address":"北关西路199号","lng":102.628901,"lat":37.93677}},
{"type":"Feature","geometry":{"type":"Point","coordinates":[102.63031830535944,37.93162137283196]},"properties":{"uid":1979,"name":"武威同济中医院","province":"甘肃省","city":"武威市","area":"凉州区","address":"共和街自觉巷35号","lng":102.630318,"lat":37.931621}},
{"type":"Feature","geometry":{"type":"Point","coordinates":[102.63635726537974,37.93371283275942]},"properties":{"uid":1980,"name":"武威九龙医院","province":"甘肃省","city":"武威市","area":"凉州区","address":"甘肃省武威市凉州区北大街57附近","lng":102.636357,"lat":37.933713}},
{"type":"Feature","geometry":{"type":"Point","coordinates":[102.6458497239732,37.92640199116702]},"properties":{"uid":1981,"name":"武威爱玛医院","province":"甘肃省","city":"武威市","area":"凉州区","address":"发展巷98号","lng":102.64585,"lat":37.926402}},
{"type":"Feature","geometry":{"type":"Point","coordinates":[102.63687362630355,37.93086349856446]},"properties":{"uid":1982,"name":"武威市西凉医院","province":"甘肃省","city":"武威市","area":"凉州区","address":"甘肃省武威市凉州区北大街60","lng":102.636874,"lat":37.930863}},
{"type":"Feature","geometry":{"type":"Point","coordinates":[102.64370717135765,37.92190082958821]},"properties":{"uid":1983,"name":"武威民康医院","province":"甘肃省","city":"武威市","area":"凉州区","address":"武威市凉州区","lng":102.643707,"lat":37.921901}},
{"type":"Feature","geometry":{"type":"Point","coordinates":[102.63602933110667,37.908409957918934]},"properties":{"uid":1984,"name":"武威民康医院","province":"甘肃省","city":"武威市","area":"凉州区","address":"南关中路409号附近","lng":102.636029,"lat":37.90841}},
{"type":"Feature","geometry":{"type":"Point","coordinates":[102.68253105045254,37.885587778365]},"properties":{"uid":1985,"name":"达利集团爱心医院","province":"甘肃省","city":"武威市","area":"凉州区","address":"甘肃省武威市凉州区天马大道","lng":102.682531,"lat":37.885588}},
{"type":"Feature","geometry":{"type":"Point","coordinates":[102.62900940680807,37.936759837580226]},"properties":{"uid":1986,"name":"地质医院","province":"甘肃省","city":"武威市","area":"凉州区","address":"武威市凉州区海藏路81号","lng":102.629009,"lat":37.93676}},
{"type":"Feature","geometry":{"type":"Point","coordinates":[102.64196069658139,37.92353818601772]},"properties":{"uid":1987,"name":"武威惠仁中医院","province":"甘肃省","city":"武威市","area":"凉州区","address":"武威市凉州区","lng":102.641961,"lat":37.923538}},
{"type":"Feature","geometry":{"type":"Point","coordinates":[102.6333900136505,37.93894814122792]},"properties":{"uid":1988,"name":"武威市民生中西医医院","province":"甘肃省","city":"武威市","area":"凉州区","address":"甘肃省武威市凉州区雷台西路107","lng":102.63339,"lat":37.938948}},
{"type":"Feature","geometry":{"type":"Point","coordinates":[102.46026914146188,38.94151203944652]},"properties":{"uid":1989,"name":"民勤县人民医院(红沙岗分院)","province":"甘肃省","city":"武威市","area":"民勤县","address":"武威市民勤县","lng":102.460269,"lat":38.941512}},
{"type":"Feature","geometry":{"type":"Point","coordinates":[103.08231818236952,38.62346205478743]},"properties":{"uid":1990,"name":"民勤县人民医院","province":"甘肃省","city":"武威市","area":"民勤县","address":"武威市民勤县西大街44号","lng":103.082318,"lat":38.623462}},
{"type":"Feature","geometry":{"type":"Point","coordinates":[103.09917381107901,38.63443394516971]},"properties":{"uid":1991,"name":"民勤县中医院","province":"甘肃省","city":"武威市","area":"民勤县","address":"武威市民勤县三雷镇城北新区贤孝路北侧","lng":103.099174,"lat":38.634434}},
{"type":"Feature","geometry":{"type":"Point","coordinates":[103.11069327636241,38.623235461055245]},"properties":{"uid":1992,"name":"刘家地中西医结合医院","province":"甘肃省","city":"武威市","area":"民勤县","address":"甘肃省武威市民勤县蒲红段","lng":103.110693,"lat":38.623235}},
{"type":"Feature","geometry":{"type":"Point","coordinates":[103.10617068357148,38.623220185331064]},"properties":{"uid":1993,"name":"民勤协和医院","province":"甘肃省","city":"武威市","area":"民勤县","address":"东大街东段","lng":103.106171,"lat":38.62322}},
{"type":"Feature","geometry":{"type":"Point","coordinates":[103.10185073246828,38.6309283218452]},"properties":{"uid":1994,"name":"民勤县中西医结合医院","province":"甘肃省","city":"武威市","area":"民勤县","address":"八一南路与民湖路交叉口西南150米","lng":103.101851,"lat":38.630928}},
{"type":"Feature","geometry":{"type":"Point","coordinates":[100.81770535656534,38.434629920211776]},"properties":{"uid":1995,"name":"民乐县人民医院","province":"甘肃省","city":"张掖市","area":"民乐县","address":"张掖市民乐县东大街67号","lng":100.817705,"lat":38.43463}},
{"type":"Feature","geometry":{"type":"Point","coordinates":[100.80570262915877,38.44917276456259]},"properties":{"uid":1996,"name":"民乐县中医医院","province":"甘肃省","city":"张掖市","area":"民乐县","address":"张掖市民乐县城北新区乐民路","lng":100.805703,"lat":38.449173}},
{"type":"Feature","geometry":{"type":"Point","coordinates":[99.81964467431675,39.37095373255973]},"properties":{"uid":1997,"name":"高台县人民医院","province":"甘肃省","city":"张掖市","area":"高台县","address":"张掖市高台县南环路1号","lng":99.819645,"lat":39.370954}},
{"type":"Feature","geometry":{"type":"Point","coordinates":[99.6192417695275,38.83798129627591]},"properties":{"uid":1998,"name":"肃南裕固族自治县人民医院","province":"甘肃省","city":"张掖市","area":"肃南裕固族自治县","address":"张掖市肃南裕固族自治县红湾寺镇明花路121号","lng":99.619242,"lat":38.837981}},
{"type":"Feature","geometry":{"type":"Point","coordinates":[99.81489998833474,39.384731123730596]},"properties":{"uid":1999,"name":"高台县中医医院","province":"甘肃省","city":"张掖市","area":"高台县","address":"张掖市高台县城关镇湿地新区环路与西城河路交汇处","lng":99.8149,"lat":39.384731}},
{"type":"Feature","geometry":{"type":"Point","coordinates":[99.816340470282,39.371809524634386]},"properties":{"uid":2000,"name":"仁济医院","province":"甘肃省","city":"张掖市","area":"高台县","address":"张掖市高台县解放南路95号","lng":99.81634,"lat":39.37181}},
{"type":"Feature","geometry":{"type":"Point","coordinates":[100.16314950121114,39.15092833542581]},"properties":{"uid":2001,"name":"临泽县人民医院","province":"甘肃省","city":"张掖市","area":"临泽县","address":"张掖市临泽县健康路157号","lng":100.16315,"lat":39.150928}},
{"type":"Feature","geometry":{"type":"Point","coordinates":[100.17186964927073,39.158337951475865]},"properties":{"uid":2002,"name":"临泽县中医院","province":"甘肃省","city":"张掖市","area":"临泽县","address":"张掖市临泽县东环路西侧","lng":100.17187,"lat":39.158338}},
{"type":"Feature","geometry":{"type":"Point","coordinates":[100.44434840343567,38.9294773891019]},"properties":{"uid":2003,"name":"河西学院附属张掖人民医院","province":"甘肃省","city":"张掖市","area":"甘州区","address":"甘肃省张掖市甘州区环城西路67号","lng":100.444348,"lat":38.929477}},
{"type":"Feature","geometry":{"type":"Point","coordinates":[100.4707739879902,38.937715455479825]},"properties":{"uid":2004,"name":"张掖市中医医院","province":"甘肃省","city":"张掖市","area":"甘州区","address":"张掖市甘州区东盘旋路110号","lng":100.470774,"lat":38.937715}},
{"type":"Feature","geometry":{"type":"Point","coordinates":[100.46983294647417,38.92663288585685]},"properties":{"uid":2005,"name":"张掖天慈阳光医院","province":"甘肃省","city":"张掖市","area":"甘州区","address":"张掖市甘州区康乐路阳光丽景东门","lng":100.469833,"lat":38.926633}},
{"type":"Feature","geometry":{"type":"Point","coordinates":[100.4650050058649,38.9274824004837]},"properties":{"uid":2006,"name":"张掖福康医院","province":"甘肃省","city":"张掖市","area":"甘州区","address":"甘肃省张掖市甘州区南环路143号","lng":100.465005,"lat":38.927482}},
{"type":"Feature","geometry":{"type":"Point","coordinates":[100.44654537987428,38.92789547008982]},"properties":{"uid":2007,"name":"张掖医专附属医院","province":"甘肃省","city":"张掖市","area":"甘州区","address":"西环路37","lng":100.446545,"lat":38.927895}},
{"type":"Feature","geometry":{"type":"Point","coordinates":[100.46291556965197,38.92790904457215]},"properties":{"uid":2008,"name":"张掖同和医院","province":"甘肃省","city":"张掖市","area":"甘州区","address":"甘肃省张掖市甘州区人民北街52号","lng":100.462916,"lat":38.927909}},
{"type":"Feature","geometry":{"type":"Point","coordinates":[100.45211293396378,38.93406329846131]},"properties":{"uid":2009,"name":"张掖市中医医院(县府街)","province":"甘肃省","city":"张掖市","area":"甘州区","address":"县府街121号","lng":100.452113,"lat":38.934063}},
{"type":"Feature","geometry":{"type":"Point","coordinates":[100.42719022006054,38.932462115237634]},"properties":{"uid":2010,"name":"张掖新城曙光医院","province":"甘肃省","city":"张掖市","area":"甘州区","address":"张掖市甘州区绿洲家园10号楼","lng":100.42719,"lat":38.932462}},
{"type":"Feature","geometry":{"type":"Point","coordinates":[100.45069643657946,38.95605619310407]},"properties":{"uid":2011,"name":"张掖仁得中西医结合医院","province":"甘肃省","city":"张掖市","area":"甘州区","address":"张掖市甘州区丹马商业街C4-1-4号","lng":100.450696,"lat":38.956056}},
{"type":"Feature","geometry":{"type":"Point","coordinates":[100.44981925586158,38.91600611984354]},"properties":{"uid":2012,"name":"张掖善爱医院","province":"甘肃省","city":"张掖市","area":"甘州区","address":"张掖市甘州区南二环906号润泽庭院C座","lng":100.449819,"lat":38.916006}},
{"type":"Feature","geometry":{"type":"Point","coordinates":[100.45670082673354,38.93934161636984]},"properties":{"uid":2013,"name":"张掖仁济医院","province":"甘肃省","city":"张掖市","area":"甘州区","address":"甘肃省张掖市甘州区北大街59附近","lng":100.456701,"lat":38.939342}},
{"type":"Feature","geometry":{"type":"Point","coordinates":[100.5228600877125,38.969893009218026]},"properties":{"uid":2014,"name":"市医院(火车站分院)","province":"甘肃省","city":"张掖市","area":"甘州区","address":"张掖市甘州区甘州大道东","lng":100.52286,"lat":38.969893}},
{"type":"Feature","geometry":{"type":"Point","coordinates":[94.34743702416576,39.63470165139452]},"properties":{"uid":2015,"name":"阿克塞哈萨克族自治县人民医院","province":"甘肃省","city":"酒泉市","area":"阿克塞哈萨克族自治县","address":"酒泉市阿克塞哈萨克族自治县民主路74号","lng":94.347437,"lat":39.634702}},
{"type":"Feature","geometry":{"type":"Point","coordinates":[94.8754416342917,39.5146980041532]},"properties":{"uid":2016,"name":"肃北蒙古族自治县人民医院","province":"甘肃省","city":"酒泉市","area":"肃北蒙古族自治县","address":"肃北县巴音路33号","lng":94.875442,"lat":39.514698}},
{"type":"Feature","geometry":{"type":"Point","coordinates":[94.88486132685048,39.51029826695917]},"properties":{"uid":2017,"name":"蒙医医院","province":"甘肃省","city":"酒泉市","area":"肃北蒙古族自治县","address":"甘肃省酒泉市肃北蒙古族自治县紫亭路","lng":94.884861,"lat":39.510298}},
{"type":"Feature","geometry":{"type":"Point","coordinates":[94.67471143133122,40.1447603239776]},"properties":{"uid":2018,"name":"敦煌市医院","province":"甘肃省","city":"酒泉市","area":"敦煌市","address":"酒泉市敦煌市阳关东路20号","lng":94.674711,"lat":40.14476}},
{"type":"Feature","geometry":{"type":"Point","coordinates":[94.66453171123581,40.13881964928942]},"properties":{"uid":2019,"name":"敦煌市中医院","province":"甘肃省","city":"酒泉市","area":"敦煌市","address":"酒泉市敦煌市沙州南路6号","lng":94.664532,"lat":40.13882}},
{"type":"Feature","geometry":{"type":"Point","coordinates":[94.59308452893983,40.11785800413612]},"properties":{"uid":2020,"name":"青海油田职工总医院","province":"甘肃省","city":"酒泉市","area":"敦煌市","address":"酒泉市敦煌市昆仑东路北","lng":94.593085,"lat":40.117858}},
{"type":"Feature","geometry":{"type":"Point","coordinates":[94.64827029092413,40.14119001286533]},"properties":{"uid":2021,"name":"肃州医院","province":"甘肃省","city":"酒泉市","area":"敦煌市","address":"阳关中路2056号","lng":94.64827,"lat":40.14119}},
{"type":"Feature","geometry":{"type":"Point","coordinates":[94.69752143491247,40.38129802253913]},"properties":{"uid":2022,"name":"甘肃省国营敦煌农场职工医院","province":"甘肃省","city":"酒泉市","area":"敦煌市","address":"酒泉市敦煌市","lng":94.697521,"lat":40.381298}},
{"type":"Feature","geometry":{"type":"Point","coordinates":[95.7755328443198,40.517748788451655]},"properties":{"uid":2023,"name":"瓜州县人民医院","province":"甘肃省","city":"酒泉市","area":"瓜州县","address":"酒泉市瓜州县渊泉镇文化街34号","lng":95.775533,"lat":40.517749}},
{"type":"Feature","geometry":{"type":"Point","coordinates":[95.77692153845415,40.52666783763684]},"properties":{"uid":2024,"name":"西湖医院","province":"甘肃省","city":"酒泉市","area":"瓜州县","address":"甘肃省酒泉市瓜州县瓜州大道101","lng":95.776922,"lat":40.526668}},
{"type":"Feature","geometry":{"type":"Point","coordinates":[96.0534598459998,40.53883193269075]},"properties":{"uid":2025,"name":"甘肃省国营小宛农场职工医院","province":"甘肃省","city":"酒泉市","area":"瓜州县","address":"酒泉市瓜州县","lng":96.05346,"lat":40.538832}},
{"type":"Feature","geometry":{"type":"Point","coordinates":[97.05149049214009,40.28048042514108]},"properties":{"uid":2026,"name":"玉门市第一人民医院","province":"甘肃省","city":"酒泉市","area":"玉门市","address":"酒泉市玉门市312国道与石油大道交汇处","lng":97.05149,"lat":40.28048}},
{"type":"Feature","geometry":{"type":"Point","coordinates":[97.42688961695313,40.01573218843601]},"properties":{"uid":2027,"name":"赤金镇医院","province":"甘肃省","city":"酒泉市","area":"玉门市","address":"甘肃省酒泉市玉门市新风路赤金镇政府附近","lng":97.42689,"lat":40.015732}},
{"type":"Feature","geometry":{"type":"Point","coordinates":[106.0483065575039,35.20796811424314]},"properties":{"uid":2028,"name":"庄浪县人民医院","province":"甘肃省","city":"平凉市","area":"庄浪县","address":"平凉市庄浪县水洛镇东关街35号","lng":106.048307,"lat":35.207968}},
{"type":"Feature","geometry":{"type":"Point","coordinates":[106.03079844306444,35.201663439521354]},"properties":{"uid":2029,"name":"庄浪县中医医院","province":"甘肃省","city":"平凉市","area":"庄浪县","address":"平凉市庄浪县新徐西路","lng":106.030798,"lat":35.201663}},
{"type":"Feature","geometry":{"type":"Point","coordinates":[107.61510604475748,35.066414765793255]},"properties":{"uid":2030,"name":"灵台县皇甫谧中医院","province":"甘肃省","city":"平凉市","area":"灵台县","address":"甘肃省平凉市灵台县西大街75号","lng":107.615106,"lat":35.066415}},
{"type":"Feature","geometry":{"type":"Point","coordinates":[107.61479026709907,35.067064862590385]},"properties":{"uid":2031,"name":"中西结合医院","province":"甘肃省","city":"平凉市","area":"灵台县","address":"甘肃省平凉市灵台县西大街66号","lng":107.61479,"lat":35.067065}},
{"type":"Feature","geometry":{"type":"Point","coordinates":[107.36844060706616,35.33190041550719]},"properties":{"uid":2032,"name":"泾川县人民医院","province":"甘肃省","city":"平凉市","area":"泾川县","address":"平凉市泾川县安定街130号","lng":107.368441,"lat":35.3319}},
{"type":"Feature","geometry":{"type":"Point","coordinates":[107.36594325276896,35.34464709587579]},"properties":{"uid":2033,"name":"泾川县中医医院","province":"甘肃省","city":"平凉市","area":"泾川县","address":"平凉市泾川县城关镇青兰高速公路","lng":107.365943,"lat":35.344647}},
{"type":"Feature","geometry":{"type":"Point","coordinates":[107.17940282036668,35.68570071909681]},"properties":{"uid":2034,"name":"协和医院","province":"甘肃省","city":"庆阳市","area":"镇原县","address":"镇原县莲池路和莲池四路交叉口","lng":107.179403,"lat":35.685701}},
{"type":"Feature","geometry":{"type":"Point","coordinates":[107.03057932628914,35.61959155931574]},"properties":{"uid":2035,"name":"平泉医院","province":"甘肃省","city":"庆阳市","area":"镇原县","address":"平泉乡","lng":107.030579,"lat":35.619592}},
{"type":"Feature","geometry":{"type":"Point","coordinates":[122.88616953832972,47.51114164926077]},"properties":{"uid":7646,"name":"齐齐哈尔碾子山区中医院","province":"黑龙江省","city":"齐齐哈尔市","area":"碾子山区","address":"齐齐哈尔市碾子山区昌盛路28号","lng":122.88617,"lat":47.511142}},
{"type":"Feature","geometry":{"type":"Point","coordinates":[122.89066023429167,47.52293785725023]},"properties":{"uid":7647,"name":"华安医院协作医院","province":"黑龙江省","city":"齐齐哈尔市","area":"碾子山区","address":"中兴街121号","lng":122.89066,"lat":47.522938}},
{"type":"Feature","geometry":{"type":"Point","coordinates":[122.80250057957178,52.92242488988027]},"properties":{"uid":7648,"name":"图强林业局职工医院","province":"黑龙江省","city":"大兴安岭地区","area":"漠河市","address":"大兴安岭地区漠河市图强镇静安街","lng":122.802501,"lat":52.922425}},
{"type":"Feature","geometry":{"type":"Point","coordinates":[122.35809289324783,53.48057711948115]},"properties":{"uid":7649,"name":"最北医院","province":"黑龙江省","city":"大兴安岭地区","area":"漠河市","address":"大兴安岭地区漠河市漠河乡北极村旅游风景区北极村旅游风景区内","lng":122.358093,"lat":53.480577}},
{"type":"Feature","geometry":{"type":"Point","coordinates":[129.2154001210537,44.12257189624935]},"properties":{"uid":7650,"name":"宁安市第二人民医院","province":"黑龙江省","city":"牡丹江市","area":"宁安市","address":"牡丹江市宁安市东京城镇友谊路37号","lng":129.2154,"lat":44.122572}},
{"type":"Feature","geometry":{"type":"Point","coordinates":[129.21962006152387,44.11379255795272]},"properties":{"uid":7651,"name":"林业医院","province":"黑龙江省","city":"牡丹江市","area":"宁安市","address":"东京城林业局","lng":129.21962,"lat":44.113793}},
{"type":"Feature","geometry":{"type":"Point","coordinates":[129.3495530934835,44.17517593230566]},"properties":{"uid":7652,"name":"宁安农场医院","province":"黑龙江省","city":"牡丹江市","area":"宁安市","address":"牡丹江市宁安市兴场路","lng":129.349553,"lat":44.175176}},
{"type":"Feature","geometry":{"type":"Point","coordinates":[131.12668108595705,44.05803010080368]},"properties":{"uid":7653,"name":"东宁市人民医院","province":"黑龙江省","city":"牡丹江市","area":"东宁市","address":"牡丹江市东宁市东宁镇中华路","lng":131.126681,"lat":44.05803}},
{"type":"Feature","geometry":{"type":"Point","coordinates":[131.12360006604703,44.06819782080298]},"properties":{"uid":7654,"name":"东宁县中医医院(中华路)","province":"黑龙江省","city":"牡丹江市","area":"东宁市","address":"东兴路8号附近","lng":131.1236,"lat":44.068198}},
{"type":"Feature","geometry":{"type":"Point","coordinates":[128.98869029587598,44.58455288138778]},"properties":{"uid":7655,"name":"黑龙江省山市种奶牛场医院","province":"黑龙江省","city":"牡丹江市","area":"海林市","address":"山密干线东50米","lng":128.98869,"lat":44.584553}},
{"type":"Feature","geometry":{"type":"Point","coordinates":[128.91197034796846,44.476099680726314]},"properties":{"uid":7656,"name":"林业医院(海林分院)","province":"黑龙江省","city":"牡丹江市","area":"海林市","address":"长汀镇大海林林业局第一小学南","lng":128.91197,"lat":44.4761}},
{"type":"Feature","geometry":{"type":"Point","coordinates":[128.91769864173764,44.364441570673826]},"properties":{"uid":7657,"name":"黑龙江省海林农场医院","province":"黑龙江省","city":"牡丹江市","area":"海林市","address":"黑龙江省牡丹江市海林市海林农场医院(长久公路南)","lng":128.917699,"lat":44.364442}},
{"type":"Feature","geometry":{"type":"Point","coordinates":[129.59747867279853,44.59742322338366]},"properties":{"uid":7658,"name":"牡丹江市第一人民医院","province":"黑龙江省","city":"牡丹江市","area":"爱民区","address":"黑龙江省牡丹江市爱民区建卫路76号","lng":129.597479,"lat":44.597423}},
{"type":"Feature","geometry":{"type":"Point","coordinates":[129.64761667171084,44.60098886269897]},